{
  "Τ.Δ.Αετού": [
    {
      "name": "Αετός",
      "id": "f45c73bd-d733-4fe0-871b-49f270c56a75.10954",
      "location": {
        "lat": "38.70536041",
        "lng": "21.08088875"
      }
    },
    {
      "name": "Μετόχιον",
      "id": "f45c73bd-d733-4fe0-871b-49f270c56a75.736",
      "location": {
        "lat": "38.00892639",
        "lng": "24.46596527"
      }
    },
    {
      "name": "Ακρωτήρι",
      "id": "f45c73bd-d733-4fe0-871b-49f270c56a75.761",
      "location": {
        "lat": "37.98166656",
        "lng": "24.46985245"
      }
    },
    {
      "name": "Μπούρος",
      "id": "f45c73bd-d733-4fe0-871b-49f270c56a75.762",
      "location": {
        "lat": "37.9629364",
        "lng": "24.47688484"
      }
    }
  ],
  "Τ.Δ.Καρύστου": [
    {
      "name": "Κάρυστος",
      "id": "f45c73bd-d733-4fe0-871b-49f270c56a75.1",
      "location": {
        "lat": "38.01434708",
        "lng": "24.41893196"
      }
    },
    {
      "name": "Σφυριδούπολη",
      "id": "f45c73bd-d733-4fe0-871b-49f270c56a75.733",
      "location": {
        "lat": "38.01461792",
        "lng": "24.33388138"
      }
    },
    {
      "name": "Ζαρμπουταίϊκα",
      "id": "f45c73bd-d733-4fe0-871b-49f270c56a75.735",
      "location": {
        "lat": "38.01698685",
        "lng": "24.38133049"
      }
    }
  ],
  "Τ.Δ.Πλατανιστού": [
    {
      "name": "Πλατανιστός",
      "id": "f45c73bd-d733-4fe0-871b-49f270c56a75.2",
      "location": {
        "lat": "38.01566696",
        "lng": "24.51451302"
      }
    },
    {
      "name": "Επανωχώριον",
      "id": "f45c73bd-d733-4fe0-871b-49f270c56a75.755",
      "location": {
        "lat": "38.02803802",
        "lng": "24.50182915"
      }
    },
    {
      "name": "Ελαιών",
      "id": "f45c73bd-d733-4fe0-871b-49f270c56a75.756",
      "location": {
        "lat": "38.02362442",
        "lng": "24.53809738"
      }
    },
    {
      "name": "Πηδουλαίικα",
      "id": "f45c73bd-d733-4fe0-871b-49f270c56a75.757",
      "location": {
        "lat": "38.01778412",
        "lng": "24.52855492"
      }
    },
    {
      "name": "Ποτάμιον",
      "id": "f45c73bd-d733-4fe0-871b-49f270c56a75.758",
      "location": {
        "lat": "38.00834274",
        "lng": "24.56131363"
      }
    },
    {
      "name": "Καστρί",
      "id": "f45c73bd-d733-4fe0-871b-49f270c56a75.759",
      "location": {
        "lat": "37.9748497",
        "lng": "24.53699684"
      }
    },
    {
      "name": "'Αγιοι",
      "id": "f45c73bd-d733-4fe0-871b-49f270c56a75.760",
      "location": {
        "lat": "37.94869995",
        "lng": "24.5073204"
      }
    },
    {
      "name": "Μανδηλού",
      "id": "f45c73bd-d733-4fe0-871b-49f270c56a75.764",
      "location": {
        "lat": "37.93112564",
        "lng": "24.52278519"
      }
    }
  ],
  "Τ.Δ.Γραμπιάς": [
    {
      "name": "Γραμπιά",
      "id": "f45c73bd-d733-4fe0-871b-49f270c56a75.3",
      "location": {
        "lat": "38.03108215",
        "lng": "24.42599678"
      }
    },
    {
      "name": "Ρούκλια",
      "id": "f45c73bd-d733-4fe0-871b-49f270c56a75.737",
      "location": {
        "lat": "38.0682869",
        "lng": "24.4347496"
      }
    },
    {
      "name": "Μεκουνίδα",
      "id": "f45c73bd-d733-4fe0-871b-49f270c56a75.738",
      "location": {
        "lat": "38.03636932",
        "lng": "24.42238426"
      }
    }
  ],
  "Τ.Δ.Μύλων": [
    {
      "name": "Μύλοι",
      "id": "f45c73bd-d733-4fe0-871b-49f270c56a75.9661",
      "location": {
        "lat": "37.5501709",
        "lng": "22.71573639"
      }
    },
    {
      "name": "Μοναστήριον",
      "id": "f45c73bd-d733-4fe0-871b-49f270c56a75.446",
      "location": {
        "lat": "38.97096634",
        "lng": "22.8049469"
      }
    },
    {
      "name": "Κουγαίικα",
      "id": "f45c73bd-d733-4fe0-871b-49f270c56a75.9660",
      "location": {
        "lat": "37.53105545",
        "lng": "22.71053123"
      }
    },
    {
      "name": "Καλαμάκιον",
      "id": "f45c73bd-d733-4fe0-871b-49f270c56a75.9662",
      "location": {
        "lat": "37.53062439",
        "lng": "22.69221306"
      }
    }
  ],
  "Τ.Δ.Καλυβίων": [
    {
      "name": "Καλύβια",
      "id": "f45c73bd-d733-4fe0-871b-49f270c56a75.10881",
      "location": {
        "lat": "38.6159935",
        "lng": "21.29010963"
      }
    },
    {
      "name": "Κάτω Καλύβια",
      "id": "f45c73bd-d733-4fe0-871b-49f270c56a75.5544",
      "location": {
        "lat": "35.04232025",
        "lng": "25.21595573"
      }
    },
    {
      "name": "Νεοχώριον",
      "id": "f45c73bd-d733-4fe0-871b-49f270c56a75.5545",
      "location": {
        "lat": "35.05610657",
        "lng": "25.20659828"
      }
    },
    {
      "name": "Παγανέα",
      "id": "f45c73bd-d733-4fe0-871b-49f270c56a75.10339",
      "location": {
        "lat": "36.6623497",
        "lng": "22.54170227"
      }
    },
    {
      "name": "'Αγιος Γεώργιος",
      "id": "f45c73bd-d733-4fe0-871b-49f270c56a75.11555",
      "location": {
        "lat": "38.62040329",
        "lng": "21.27791023"
      }
    },
    {
      "name": "Πλάτανος",
      "id": "f45c73bd-d733-4fe0-871b-49f270c56a75.11556",
      "location": {
        "lat": "38.60703659",
        "lng": "21.32092476"
      }
    }
  ],
  "Τ.Δ.Μαρμαρίου": [
    {
      "name": "Μαρμάριον",
      "id": "f45c73bd-d733-4fe0-871b-49f270c56a75.6",
      "location": {
        "lat": "38.04688263",
        "lng": "24.31941032"
      }
    },
    {
      "name": "Φηγιάς",
      "id": "f45c73bd-d733-4fe0-871b-49f270c56a75.725",
      "location": {
        "lat": "38.07458496",
        "lng": "24.31013489"
      }
    },
    {
      "name": "Παραλία Φηγιά",
      "id": "f45c73bd-d733-4fe0-871b-49f270c56a75.726",
      "location": {
        "lat": "38.06975555",
        "lng": "24.29822731"
      }
    },
    {
      "name": "Διασταύρωση",
      "id": "f45c73bd-d733-4fe0-871b-49f270c56a75.727",
      "location": {
        "lat": "38.06588745",
        "lng": "24.33411407"
      }
    },
    {
      "name": "'Αγιος Κωνσταντίνος",
      "id": "f45c73bd-d733-4fe0-871b-49f270c56a75.728",
      "location": {
        "lat": "38.05550385",
        "lng": "24.32064629"
      }
    },
    {
      "name": "Κοκκίνης",
      "id": "f45c73bd-d733-4fe0-871b-49f270c56a75.729",
      "location": {
        "lat": "38.05277252",
        "lng": "24.31424713"
      }
    },
    {
      "name": "Παναγία",
      "id": "f45c73bd-d733-4fe0-871b-49f270c56a75.730",
      "location": {
        "lat": "38.04288101",
        "lng": "24.33093834"
      }
    },
    {
      "name": "Κρύα Βρύση",
      "id": "f45c73bd-d733-4fe0-871b-49f270c56a75.731",
      "location": {
        "lat": "38.04303741",
        "lng": "24.32172394"
      }
    },
    {
      "name": "Αγία Μαρίνα",
      "id": "f45c73bd-d733-4fe0-871b-49f270c56a75.732",
      "location": {
        "lat": "38.03274536",
        "lng": "24.32062721"
      }
    },
    {
      "name": "Λυκόρεμα",
      "id": "f45c73bd-d733-4fe0-871b-49f270c56a75.734",
      "location": {
        "lat": "38.01159286",
        "lng": "24.34057426"
      }
    },
    {
      "name": "Μεγαλόνησος Πεταλιών",
      "id": "f45c73bd-d733-4fe0-871b-49f270c56a75.739",
      "location": {
        "lat": "38.01498413",
        "lng": "24.25979805"
      }
    },
    {
      "name": "Τραγονήσιον",
      "id": "f45c73bd-d733-4fe0-871b-49f270c56a75.740",
      "location": {
        "lat": "38.02499771",
        "lng": "24.27078056"
      }
    },
    {
      "name": "Χερσονήσιον",
      "id": "f45c73bd-d733-4fe0-871b-49f270c56a75.741",
      "location": {
        "lat": "38.02038956",
        "lng": "24.27765465"
      }
    }
  ],
  "Τ.Δ.Κατσαρωνίου": [
    {
      "name": "Κατσαρώνιον",
      "id": "f45c73bd-d733-4fe0-871b-49f270c56a75.7",
      "location": {
        "lat": "38.0557518",
        "lng": "24.37587929"
      }
    },
    {
      "name": "Χωνί",
      "id": "f45c73bd-d733-4fe0-871b-49f270c56a75.763",
      "location": {
        "lat": "38.0464592",
        "lng": "24.37151909"
      }
    }
  ],
  "Τ.Δ.Κομίτου": [
    {
      "name": "Κόμιτον",
      "id": "f45c73bd-d733-4fe0-871b-49f270c56a75.8",
      "location": {
        "lat": "38.06430435",
        "lng": "24.53830719"
      }
    },
    {
      "name": "Ευαγγελισμός",
      "id": "f45c73bd-d733-4fe0-871b-49f270c56a75.753",
      "location": {
        "lat": "38.07678604",
        "lng": "24.56897163"
      }
    },
    {
      "name": "Αντιάς",
      "id": "f45c73bd-d733-4fe0-871b-49f270c56a75.754",
      "location": {
        "lat": "38.0524826",
        "lng": "24.53596687"
      }
    }
  ],
  "Τ.Δ.Παραδεισίου": [
    {
      "name": "Παραδείσιον",
      "id": "f45c73bd-d733-4fe0-871b-49f270c56a75.8978",
      "location": {
        "lat": "37.94304657",
        "lng": "22.64447975"
      }
    },
    {
      "name": "Χάνια",
      "id": "f45c73bd-d733-4fe0-871b-49f270c56a75.723",
      "location": {
        "lat": "38.07548141",
        "lng": "24.35494232"
      }
    },
    {
      "name": "Αλέξης",
      "id": "f45c73bd-d733-4fe0-871b-49f270c56a75.724",
      "location": {
        "lat": "38.08018494",
        "lng": "24.34178162"
      }
    },
    {
      "name": "Βαγιές",
      "id": "f45c73bd-d733-4fe0-871b-49f270c56a75.1350",
      "location": {
        "lat": "36.39818954",
        "lng": "28.0899353"
      }
    }
  ],
  "Τ.Δ.Μελισσώνος": [
    {
      "name": "Μελισσών",
      "id": "f45c73bd-d733-4fe0-871b-49f270c56a75.10",
      "location": {
        "lat": "38.08887863",
        "lng": "24.39148903"
      }
    }
  ],
  "Τ.Δ.Αγίου Δημητρίου": [
    {
      "name": "'Αγιος Δημήτριος",
      "id": "f45c73bd-d733-4fe0-871b-49f270c56a75.11903",
      "location": {
        "lat": "39.51254272",
        "lng": "22.11119652"
      }
    },
    {
      "name": "Μαυρόγεια",
      "id": "f45c73bd-d733-4fe0-871b-49f270c56a75.798",
      "location": {
        "lat": "38.43130875",
        "lng": "22.98787498"
      }
    },
    {
      "name": "Δράκας",
      "id": "f45c73bd-d733-4fe0-871b-49f270c56a75.4371",
      "location": {
        "lat": "37.7922821",
        "lng": "20.778265"
      }
    },
    {
      "name": "'Αγιο Πνεύμα",
      "id": "f45c73bd-d733-4fe0-871b-49f270c56a75.7811",
      "location": {
        "lat": "40.44750214",
        "lng": "21.97235107"
      }
    },
    {
      "name": "Μετόχιον",
      "id": "f45c73bd-d733-4fe0-871b-49f270c56a75.8622",
      "location": {
        "lat": "37.60346603",
        "lng": "22.94402695"
      }
    },
    {
      "name": "Γκάτζια",
      "id": "f45c73bd-d733-4fe0-871b-49f270c56a75.9559",
      "location": {
        "lat": "37.63477707",
        "lng": "22.92530441"
      }
    },
    {
      "name": "Κολοκυθάς",
      "id": "f45c73bd-d733-4fe0-871b-49f270c56a75.9798",
      "location": {
        "lat": "37.89053726",
        "lng": "21.42906952"
      }
    },
    {
      "name": "Γάβρινα",
      "id": "f45c73bd-d733-4fe0-871b-49f270c56a75.11387",
      "location": {
        "lat": "39.07270432",
        "lng": "21.68543625"
      }
    }
  ],
  "Τ.Δ.Αμυγδαλέας": [
    {
      "name": "Αμυγδαλέα",
      "id": "f45c73bd-d733-4fe0-871b-49f270c56a75.11998",
      "location": {
        "lat": "39.65242386",
        "lng": "22.26054382"
      }
    },
    {
      "name": "Σχίζαλη",
      "id": "f45c73bd-d733-4fe0-871b-49f270c56a75.747",
      "location": {
        "lat": "38.12801361",
        "lng": "24.55797386"
      }
    },
    {
      "name": "Πρινιά",
      "id": "f45c73bd-d733-4fe0-871b-49f270c56a75.748",
      "location": {
        "lat": "38.13305664",
        "lng": "24.5708046"
      }
    },
    {
      "name": "Ζαχαριά",
      "id": "f45c73bd-d733-4fe0-871b-49f270c56a75.749",
      "location": {
        "lat": "38.10547638",
        "lng": "24.55645752"
      }
    },
    {
      "name": "Θύμιον",
      "id": "f45c73bd-d733-4fe0-871b-49f270c56a75.750",
      "location": {
        "lat": "38.09485626",
        "lng": "24.56498909"
      }
    },
    {
      "name": "Δρυμονάριον",
      "id": "f45c73bd-d733-4fe0-871b-49f270c56a75.751",
      "location": {
        "lat": "38.09002686",
        "lng": "24.54634666"
      }
    },
    {
      "name": "Καψούριον",
      "id": "f45c73bd-d733-4fe0-871b-49f270c56a75.752",
      "location": {
        "lat": "38.09142303",
        "lng": "24.53751183"
      }
    },
    {
      "name": "Σταυρωτή",
      "id": "f45c73bd-d733-4fe0-871b-49f270c56a75.6209",
      "location": {
        "lat": "40.21543884",
        "lng": "21.89358902"
      }
    },
    {
      "name": "Ανατολή",
      "id": "f45c73bd-d733-4fe0-871b-49f270c56a75.7852",
      "location": {
        "lat": "40.22901917",
        "lng": "21.89856911"
      }
    },
    {
      "name": "Συνοικισμός Προσφύγων",
      "id": "f45c73bd-d733-4fe0-871b-49f270c56a75.12336",
      "location": {
        "lat": "39.64743042",
        "lng": "22.27462959"
      }
    }
  ],
  "Τ.Δ.Στουππαίων": [
    {
      "name": "Στουππαίοι",
      "id": "f45c73bd-d733-4fe0-871b-49f270c56a75.13",
      "location": {
        "lat": "38.11985016",
        "lng": "24.31054688"
      }
    },
    {
      "name": "Βαρελλαίοι",
      "id": "f45c73bd-d733-4fe0-871b-49f270c56a75.716",
      "location": {
        "lat": "38.15111542",
        "lng": "24.31342316"
      }
    },
    {
      "name": "Βατήσιον",
      "id": "f45c73bd-d733-4fe0-871b-49f270c56a75.717",
      "location": {
        "lat": "38.09675598",
        "lng": "24.32581139"
      }
    },
    {
      "name": "Καλογέρι",
      "id": "f45c73bd-d733-4fe0-871b-49f270c56a75.718",
      "location": {
        "lat": "38.08972549",
        "lng": "24.32481575"
      }
    },
    {
      "name": "Ριζοβούνιον",
      "id": "f45c73bd-d733-4fe0-871b-49f270c56a75.719",
      "location": {
        "lat": "38.12486267",
        "lng": "24.31040382"
      }
    }
  ],
  "Τ.Δ.Καλλιανού": [
    {
      "name": "Καλλιανός",
      "id": "f45c73bd-d733-4fe0-871b-49f270c56a75.14",
      "location": {
        "lat": "38.1223793",
        "lng": "24.48776245"
      }
    },
    {
      "name": "Καλέργον",
      "id": "f45c73bd-d733-4fe0-871b-49f270c56a75.742",
      "location": {
        "lat": "38.13751221",
        "lng": "24.46833992"
      }
    },
    {
      "name": "Αγαθόν",
      "id": "f45c73bd-d733-4fe0-871b-49f270c56a75.743",
      "location": {
        "lat": "38.13158417",
        "lng": "24.4965744"
      }
    },
    {
      "name": "Σώτειρα",
      "id": "f45c73bd-d733-4fe0-871b-49f270c56a75.744",
      "location": {
        "lat": "38.13507462",
        "lng": "24.52523232"
      }
    },
    {
      "name": "Βράχος",
      "id": "f45c73bd-d733-4fe0-871b-49f270c56a75.745",
      "location": {
        "lat": "38.10666275",
        "lng": "24.48815155"
      }
    },
    {
      "name": "Λενοσαίοι",
      "id": "f45c73bd-d733-4fe0-871b-49f270c56a75.746",
      "location": {
        "lat": "38.1078949",
        "lng": "24.48125076"
      }
    }
  ],
  "Τ.Δ.Ακταίου": [
    {
      "name": "Ακταίον",
      "id": "f45c73bd-d733-4fe0-871b-49f270c56a75.15",
      "location": {
        "lat": "38.14641953",
        "lng": "24.35903549"
      }
    },
    {
      "name": "Εκάλη",
      "id": "f45c73bd-d733-4fe0-871b-49f270c56a75.720",
      "location": {
        "lat": "38.12470627",
        "lng": "24.3603363"
      }
    }
  ],
  "Τ.Δ.Γιαννιτσίου": [
    {
      "name": "Γιαννίτσιον",
      "id": "f45c73bd-d733-4fe0-871b-49f270c56a75.16",
      "location": {
        "lat": "38.14108276",
        "lng": "24.39299965"
      }
    },
    {
      "name": "Κάτω Γιαννίτσι",
      "id": "f45c73bd-d733-4fe0-871b-49f270c56a75.721",
      "location": {
        "lat": "38.14488983",
        "lng": "24.38922501"
      }
    },
    {
      "name": "Πόθιον",
      "id": "f45c73bd-d733-4fe0-871b-49f270c56a75.722",
      "location": {
        "lat": "38.12797928",
        "lng": "24.37338066"
      }
    }
  ],
  "Τ.Δ.Στύρων": [
    {
      "name": "Στύρα",
      "id": "f45c73bd-d733-4fe0-871b-49f270c56a75.17",
      "location": {
        "lat": "38.15218353",
        "lng": "24.23749352"
      }
    },
    {
      "name": "Ελαφολίμανο",
      "id": "f45c73bd-d733-4fe0-871b-49f270c56a75.711",
      "location": {
        "lat": "38.09425354",
        "lng": "24.24224472"
      }
    },
    {
      "name": "Καγκαδαίοι",
      "id": "f45c73bd-d733-4fe0-871b-49f270c56a75.712",
      "location": {
        "lat": "38.14585114",
        "lng": "24.23832703"
      }
    },
    {
      "name": "Κάψαλα",
      "id": "f45c73bd-d733-4fe0-871b-49f270c56a75.713",
      "location": {
        "lat": "38.13822937",
        "lng": "24.24584198"
      }
    },
    {
      "name": "Λεύκα",
      "id": "f45c73bd-d733-4fe0-871b-49f270c56a75.714",
      "location": {
        "lat": "38.1618309",
        "lng": "24.21047974"
      }
    },
    {
      "name": "Νιμπορειό",
      "id": "f45c73bd-d733-4fe0-871b-49f270c56a75.715",
      "location": {
        "lat": "38.12229156",
        "lng": "24.2136364"
      }
    }
  ],
  "Τ.Δ.Στεφάνης": [
    {
      "name": "Στεφάνη",
      "id": "f45c73bd-d733-4fe0-871b-49f270c56a75.2847",
      "location": {
        "lat": "39.1768837",
        "lng": "20.78743744"
      }
    }
  ],
  "Τ.Δ.Νέων Στύρων": [
    {
      "name": "Νέα Στύρα",
      "id": "f45c73bd-d733-4fe0-871b-49f270c56a75.19",
      "location": {
        "lat": "38.1834259",
        "lng": "24.19828033"
      }
    },
    {
      "name": "Βαθύρεμα",
      "id": "f45c73bd-d733-4fe0-871b-49f270c56a75.706",
      "location": {
        "lat": "38.16265488",
        "lng": "24.31154823"
      }
    },
    {
      "name": "Δήλησο",
      "id": "f45c73bd-d733-4fe0-871b-49f270c56a75.707",
      "location": {
        "lat": "38.20903397",
        "lng": "24.18723488"
      }
    },
    {
      "name": "Ζωοδόχος Πηγή",
      "id": "f45c73bd-d733-4fe0-871b-49f270c56a75.708",
      "location": {
        "lat": "38.17102051",
        "lng": "24.24460983"
      }
    },
    {
      "name": "Κελλιά",
      "id": "f45c73bd-d733-4fe0-871b-49f270c56a75.709",
      "location": {
        "lat": "38.16731262",
        "lng": "24.25839615"
      }
    },
    {
      "name": "Κουβέλλαι",
      "id": "f45c73bd-d733-4fe0-871b-49f270c56a75.710",
      "location": {
        "lat": "38.17819977",
        "lng": "24.23121071"
      }
    }
  ],
  "Τ.Δ.Πλαταιών": [
    {
      "name": "Πλαταιαί",
      "id": "f45c73bd-d733-4fe0-871b-49f270c56a75.20",
      "location": {
        "lat": "38.20942688",
        "lng": "23.26379967"
      }
    },
    {
      "name": "Μονή Αγίας Τριάδος",
      "id": "f45c73bd-d733-4fe0-871b-49f270c56a75.824",
      "location": {
        "lat": "38.20198441",
        "lng": "23.23452568"
      }
    }
  ],
  "Τ.Δ.Πύλης": [
    {
      "name": "Πύλη",
      "id": "f45c73bd-d733-4fe0-871b-49f270c56a75.11861",
      "location": {
        "lat": "39.45601273",
        "lng": "21.61803818"
      }
    },
    {
      "name": "Πάνακτον",
      "id": "f45c73bd-d733-4fe0-871b-49f270c56a75.822",
      "location": {
        "lat": "38.18990326",
        "lng": "23.49500656"
      }
    },
    {
      "name": "Πράσινον",
      "id": "f45c73bd-d733-4fe0-871b-49f270c56a75.823",
      "location": {
        "lat": "38.18256378",
        "lng": "23.51184082"
      }
    }
  ],
  "Τ.Δ.Σκούρτων": [
    {
      "name": "Σκούρτα",
      "id": "f45c73bd-d733-4fe0-871b-49f270c56a75.22",
      "location": {
        "lat": "38.21138763",
        "lng": "23.55030632"
      }
    }
  ],
  "Τ.Δ.Πολυποτάμου": [
    {
      "name": "Πολυπόταμος",
      "id": "f45c73bd-d733-4fe0-871b-49f270c56a75.23",
      "location": {
        "lat": "38.21090698",
        "lng": "24.23372841"
      }
    },
    {
      "name": "Ελαιοχώριον",
      "id": "f45c73bd-d733-4fe0-871b-49f270c56a75.705",
      "location": {
        "lat": "38.21522522",
        "lng": "24.2463913"
      }
    },
    {
      "name": "Πολυπόταμον",
      "id": "f45c73bd-d733-4fe0-871b-49f270c56a75.6682",
      "location": {
        "lat": "40.71627808",
        "lng": "21.36359215"
      }
    }
  ],
  "Τ.Δ.Καπαρελλίου": [
    {
      "name": "Καπαρέλλιον",
      "id": "f45c73bd-d733-4fe0-871b-49f270c56a75.8695",
      "location": {
        "lat": "37.67484665",
        "lng": "22.50767326"
      }
    },
    {
      "name": "Καλαμάκι",
      "id": "f45c73bd-d733-4fe0-871b-49f270c56a75.825",
      "location": {
        "lat": "38.19822311",
        "lng": "23.12359428"
      }
    },
    {
      "name": "'Αγιος Βασίλειος",
      "id": "f45c73bd-d733-4fe0-871b-49f270c56a75.826",
      "location": {
        "lat": "38.17867661",
        "lng": "23.14208412"
      }
    }
  ],
  "Τ.Δ.Δάφνης": [
    {
      "name": "Δάφνη",
      "id": "f45c73bd-d733-4fe0-871b-49f270c56a75.11066",
      "location": {
        "lat": "39.03182602",
        "lng": "21.72426987"
      }
    },
    {
      "name": "Ακαμάτρα",
      "id": "f45c73bd-d733-4fe0-871b-49f270c56a75.1553",
      "location": {
        "lat": "37.6039772",
        "lng": "26.16772461"
      }
    },
    {
      "name": "Κοσοίκια",
      "id": "f45c73bd-d733-4fe0-871b-49f270c56a75.1554",
      "location": {
        "lat": "37.58742523",
        "lng": "26.16068268"
      }
    },
    {
      "name": "Πετροπούλιον",
      "id": "f45c73bd-d733-4fe0-871b-49f270c56a75.1555",
      "location": {
        "lat": "37.59519196",
        "lng": "26.16026878"
      }
    },
    {
      "name": "Πλαγιά",
      "id": "f45c73bd-d733-4fe0-871b-49f270c56a75.1556",
      "location": {
        "lat": "37.56165314",
        "lng": "26.16986847"
      }
    },
    {
      "name": "Στελί",
      "id": "f45c73bd-d733-4fe0-871b-49f270c56a75.1557",
      "location": {
        "lat": "37.59129715",
        "lng": "26.15523338"
      }
    },
    {
      "name": "Γαβράδες",
      "id": "f45c73bd-d733-4fe0-871b-49f270c56a75.4232",
      "location": {
        "lat": "39.73263168",
        "lng": "19.7074585"
      }
    },
    {
      "name": "Ορέσκεια",
      "id": "f45c73bd-d733-4fe0-871b-49f270c56a75.7236",
      "location": {
        "lat": "40.85222244",
        "lng": "23.63964272"
      }
    },
    {
      "name": "Καλαθάς",
      "id": "f45c73bd-d733-4fe0-871b-49f270c56a75.9814",
      "location": {
        "lat": "37.86987686",
        "lng": "21.44551468"
      }
    },
    {
      "name": "Μανιάτης",
      "id": "f45c73bd-d733-4fe0-871b-49f270c56a75.10588",
      "location": {
        "lat": "37.36133957",
        "lng": "22.28759575"
      }
    },
    {
      "name": "Κάτω Δάφνη",
      "id": "f45c73bd-d733-4fe0-871b-49f270c56a75.11239",
      "location": {
        "lat": "38.41186905",
        "lng": "21.8732338"
      }
    }
  ],
  "Τ.Δ.Μεσοχωρίων": [
    {
      "name": "Μεσοχώρια",
      "id": "f45c73bd-d733-4fe0-871b-49f270c56a75.26",
      "location": {
        "lat": "38.24795532",
        "lng": "24.20939636"
      }
    },
    {
      "name": "Ραπταίοι",
      "id": "f45c73bd-d733-4fe0-871b-49f270c56a75.703",
      "location": {
        "lat": "38.2444725",
        "lng": "24.20111084"
      }
    },
    {
      "name": "Τσακαίοι",
      "id": "f45c73bd-d733-4fe0-871b-49f270c56a75.704",
      "location": {
        "lat": "38.23592377",
        "lng": "24.2200489"
      }
    }
  ],
  "Τ.Δ.Ξηρονομής": [
    {
      "name": "Ξηρονομή",
      "id": "f45c73bd-d733-4fe0-871b-49f270c56a75.27",
      "location": {
        "lat": "38.2472496",
        "lng": "23.07242203"
      }
    },
    {
      "name": "Αλυκή",
      "id": "f45c73bd-d733-4fe0-871b-49f270c56a75.828",
      "location": {
        "lat": "38.19337845",
        "lng": "23.05046844"
      }
    }
  ],
  "Τ.Δ.Λεύκτρων": [
    {
      "name": "Λεύκτρα",
      "id": "f45c73bd-d733-4fe0-871b-49f270c56a75.28",
      "location": {
        "lat": "38.25014877",
        "lng": "23.18197632"
      }
    },
    {
      "name": "Παραλία Λιβαδόστρας",
      "id": "f45c73bd-d733-4fe0-871b-49f270c56a75.827",
      "location": {
        "lat": "38.20600891",
        "lng": "23.11094475"
      }
    }
  ],
  "Τ.Δ.Δομβραίνης": [
    {
      "name": "Δομβραίνα",
      "id": "f45c73bd-d733-4fe0-871b-49f270c56a75.29",
      "location": {
        "lat": "38.25081253",
        "lng": "22.98113823"
      }
    },
    {
      "name": "Μονή Μακαριωτίσσης",
      "id": "f45c73bd-d733-4fe0-871b-49f270c56a75.821",
      "location": {
        "lat": "38.2915535",
        "lng": "22.99627495"
      }
    },
    {
      "name": "'Αγιος Νικόλαος",
      "id": "f45c73bd-d733-4fe0-871b-49f270c56a75.829",
      "location": {
        "lat": "38.21084595",
        "lng": "23.02447891"
      }
    }
  ],
  "Τ.Δ.Θίσβης": [
    {
      "name": "Θίσβη",
      "id": "f45c73bd-d733-4fe0-871b-49f270c56a75.30",
      "location": {
        "lat": "38.25545883",
        "lng": "22.96903992"
      }
    },
    {
      "name": "Όρμος Αγίου Ιωάννου",
      "id": "f45c73bd-d733-4fe0-871b-49f270c56a75.831",
      "location": {
        "lat": "38.21276093",
        "lng": "22.95799065"
      }
    }
  ],
  "Τ.Δ.Προδρόμου": [
    {
      "name": "Πρόδρομος",
      "id": "f45c73bd-d733-4fe0-871b-49f270c56a75.11950",
      "location": {
        "lat": "39.56301117",
        "lng": "21.58799362"
      }
    },
    {
      "name": "Παραλία",
      "id": "f45c73bd-d733-4fe0-871b-49f270c56a75.830",
      "location": {
        "lat": "38.23541641",
        "lng": "22.88762283"
      }
    },
    {
      "name": "Αγία Τριάς",
      "id": "f45c73bd-d733-4fe0-871b-49f270c56a75.7703",
      "location": {
        "lat": "40.54603195",
        "lng": "22.42082405"
      }
    },
    {
      "name": "Νέος Πρόδρομος",
      "id": "f45c73bd-d733-4fe0-871b-49f270c56a75.7704",
      "location": {
        "lat": "40.53347778",
        "lng": "22.43280029"
      }
    },
    {
      "name": "Γρανάς",
      "id": "f45c73bd-d733-4fe0-871b-49f270c56a75.11307",
      "location": {
        "lat": "38.72410202",
        "lng": "21.73619461"
      }
    }
  ],
  "Τ.Δ.Ελλοπίας": [
    {
      "name": "Ελλοπία",
      "id": "f45c73bd-d733-4fe0-871b-49f270c56a75.32",
      "location": {
        "lat": "38.25817871",
        "lng": "23.11273766"
      }
    }
  ],
  "Τ.Δ.Μελισσοχωρίου": [
    {
      "name": "Μελισσοχώριον",
      "id": "f45c73bd-d733-4fe0-871b-49f270c56a75.11989",
      "location": {
        "lat": "39.62949371",
        "lng": "22.49545288"
      }
    }
  ],
  "Τ.Δ.Αλμυροποτάμου": [
    {
      "name": "Αλμυροπόταμος",
      "id": "f45c73bd-d733-4fe0-871b-49f270c56a75.34",
      "location": {
        "lat": "38.2685318",
        "lng": "24.1875267"
      }
    },
    {
      "name": "Παναγία",
      "id": "f45c73bd-d733-4fe0-871b-49f270c56a75.692",
      "location": {
        "lat": "38.26542664",
        "lng": "24.15888977"
      }
    },
    {
      "name": "Καβαλλιανή",
      "id": "f45c73bd-d733-4fe0-871b-49f270c56a75.702",
      "location": {
        "lat": "38.22689056",
        "lng": "24.09878731"
      }
    }
  ],
  "Τ.Δ.Κλειδίου": [
    {
      "name": "Κλειδίον",
      "id": "f45c73bd-d733-4fe0-871b-49f270c56a75.6711",
      "location": {
        "lat": "40.74729919",
        "lng": "21.63767052"
      }
    },
    {
      "name": "Αγία Παρασκευή",
      "id": "f45c73bd-d733-4fe0-871b-49f270c56a75.3562",
      "location": {
        "lat": "39.12969589",
        "lng": "21.23762131"
      }
    },
    {
      "name": "Πέτρα",
      "id": "f45c73bd-d733-4fe0-871b-49f270c56a75.3563",
      "location": {
        "lat": "39.13151169",
        "lng": "21.25566864"
      }
    },
    {
      "name": "Περδικορράχη",
      "id": "f45c73bd-d733-4fe0-871b-49f270c56a75.3564",
      "location": {
        "lat": "39.13699341",
        "lng": "21.23147964"
      }
    },
    {
      "name": "Ακροποταμιά",
      "id": "f45c73bd-d733-4fe0-871b-49f270c56a75.3565",
      "location": {
        "lat": "39.16363525",
        "lng": "21.19769096"
      }
    },
    {
      "name": "Γαλάνιον",
      "id": "f45c73bd-d733-4fe0-871b-49f270c56a75.3566",
      "location": {
        "lat": "39.15401077",
        "lng": "21.18360329"
      }
    }
  ],
  "Τ.Δ.Αγίου Θωμά": [
    {
      "name": "'Αγιος Θωμάς",
      "id": "f45c73bd-d733-4fe0-871b-49f270c56a75.10724",
      "location": {
        "lat": "38.38641739",
        "lng": "21.47359657"
      }
    },
    {
      "name": "Μετόχι",
      "id": "f45c73bd-d733-4fe0-871b-49f270c56a75.11582",
      "location": {
        "lat": "38.38897324",
        "lng": "21.47605324"
      }
    },
    {
      "name": "Αγραφορράχη",
      "id": "f45c73bd-d733-4fe0-871b-49f270c56a75.11583",
      "location": {
        "lat": "38.39591217",
        "lng": "21.46945"
      }
    },
    {
      "name": "Πασπαλιαρέικα",
      "id": "f45c73bd-d733-4fe0-871b-49f270c56a75.11584",
      "location": {
        "lat": "38.39782715",
        "lng": "21.48210716"
      }
    }
  ],
  "Τ.Δ.Λουτουφίου": [
    {
      "name": "Λουτούφιον",
      "id": "f45c73bd-d733-4fe0-871b-49f270c56a75.37",
      "location": {
        "lat": "38.27428818",
        "lng": "23.26766777"
      }
    }
  ],
  "Τ.Δ.Νεοχωρακίου": [
    {
      "name": "Νεοχωράκιον",
      "id": "f45c73bd-d733-4fe0-871b-49f270c56a75.6805",
      "location": {
        "lat": "40.82577896",
        "lng": "21.54019356"
      }
    },
    {
      "name": "'Αγιος Αθανάσιος",
      "id": "f45c73bd-d733-4fe0-871b-49f270c56a75.6789",
      "location": {
        "lat": "40.81182861",
        "lng": "21.53105164"
      }
    }
  ],
  "Τ.Δ.Ασωπίας": [
    {
      "name": "Ασωπία",
      "id": "f45c73bd-d733-4fe0-871b-49f270c56a75.39",
      "location": {
        "lat": "38.29508591",
        "lng": "23.50073814"
      }
    }
  ],
  "Τ.Δ.Αμπελοχωρίου": [
    {
      "name": "Αμπελοχώριον",
      "id": "f45c73bd-d733-4fe0-871b-49f270c56a75.12056",
      "location": {
        "lat": "39.75421524",
        "lng": "21.33280563"
      }
    }
  ],
  "Τ.Δ.Νεοχωρίου Θεσπιών": [
    {
      "name": "Νεοχώριον",
      "id": "f45c73bd-d733-4fe0-871b-49f270c56a75.41",
      "location": {
        "lat": "38.29565811",
        "lng": "23.10708046"
      }
    }
  ],
  "Τ.Δ.Ζαράκων": [
    {
      "name": "Ζάρακες",
      "id": "f45c73bd-d733-4fe0-871b-49f270c56a75.42",
      "location": {
        "lat": "38.30225372",
        "lng": "24.19042015"
      }
    },
    {
      "name": "Παραλία Ζαράκων",
      "id": "f45c73bd-d733-4fe0-871b-49f270c56a75.691",
      "location": {
        "lat": "38.31389999",
        "lng": "24.22395325"
      }
    }
  ],
  "Τ.Δ.Λεονταρίου": [
    {
      "name": "Λεοντάριον",
      "id": "f45c73bd-d733-4fe0-871b-49f270c56a75.11641",
      "location": {
        "lat": "39.17912674",
        "lng": "22.13085938"
      }
    },
    {
      "name": "Καλύβια",
      "id": "f45c73bd-d733-4fe0-871b-49f270c56a75.10685",
      "location": {
        "lat": "37.31289673",
        "lng": "22.13548279"
      }
    },
    {
      "name": "Γαβριά",
      "id": "f45c73bd-d733-4fe0-871b-49f270c56a75.10686",
      "location": {
        "lat": "37.32801437",
        "lng": "22.13698959"
      }
    },
    {
      "name": "Κοτσιρίδιον",
      "id": "f45c73bd-d733-4fe0-871b-49f270c56a75.10687",
      "location": {
        "lat": "37.33728409",
        "lng": "22.12591934"
      }
    },
    {
      "name": "Καμαρίτσα",
      "id": "f45c73bd-d733-4fe0-871b-49f270c56a75.10688",
      "location": {
        "lat": "37.34802628",
        "lng": "22.1493988"
      }
    }
  ],
  "Τ.Δ.Θεσπιών": [
    {
      "name": "Θεσπιαί",
      "id": "f45c73bd-d733-4fe0-871b-49f270c56a75.44",
      "location": {
        "lat": "38.30079651",
        "lng": "23.14927101"
      }
    }
  ],
  "Τ.Δ.Καλλιθέας": [
    {
      "name": "Καλλιθέα",
      "id": "f45c73bd-d733-4fe0-871b-49f270c56a75.12059",
      "location": {
        "lat": "39.76659775",
        "lng": "21.72816849"
      }
    },
    {
      "name": "Καρτερός",
      "id": "f45c73bd-d733-4fe0-871b-49f270c56a75.5702",
      "location": {
        "lat": "35.31627274",
        "lng": "25.19534683"
      }
    },
    {
      "name": "Πρασσάς",
      "id": "f45c73bd-d733-4fe0-871b-49f270c56a75.5703",
      "location": {
        "lat": "35.31259918",
        "lng": "25.18707466"
      }
    },
    {
      "name": "Σωλήνα",
      "id": "f45c73bd-d733-4fe0-871b-49f270c56a75.7552",
      "location": {
        "lat": "40.05743408",
        "lng": "23.45937538"
      }
    },
    {
      "name": "Πριόνια",
      "id": "f45c73bd-d733-4fe0-871b-49f270c56a75.7954",
      "location": {
        "lat": "39.88092422",
        "lng": "21.36516762"
      }
    },
    {
      "name": "'Ανω Καλλιθέα",
      "id": "f45c73bd-d733-4fe0-871b-49f270c56a75.9351",
      "location": {
        "lat": "38.15929031",
        "lng": "21.74454308"
      }
    },
    {
      "name": "Σκουπαίικα",
      "id": "f45c73bd-d733-4fe0-871b-49f270c56a75.9703",
      "location": {
        "lat": "38.11402512",
        "lng": "22.48636818"
      }
    },
    {
      "name": "Μπαρακίτικα",
      "id": "f45c73bd-d733-4fe0-871b-49f270c56a75.9969",
      "location": {
        "lat": "37.551651",
        "lng": "21.7894516"
      }
    },
    {
      "name": "Αραπόλακκα",
      "id": "f45c73bd-d733-4fe0-871b-49f270c56a75.10224",
      "location": {
        "lat": "36.89636993",
        "lng": "21.77094078"
      }
    },
    {
      "name": "'Αγιος Σπυρίδων",
      "id": "f45c73bd-d733-4fe0-871b-49f270c56a75.11125",
      "location": {
        "lat": "38.36520767",
        "lng": "22.12333679"
      }
    },
    {
      "name": "Κλοβινός",
      "id": "f45c73bd-d733-4fe0-871b-49f270c56a75.11126",
      "location": {
        "lat": "38.35536957",
        "lng": "22.13894272"
      }
    },
    {
      "name": "'Αγιος Νικόλαος",
      "id": "f45c73bd-d733-4fe0-871b-49f270c56a75.11131",
      "location": {
        "lat": "38.3404274",
        "lng": "22.15880775"
      }
    },
    {
      "name": "Αγία Ειρήνη",
      "id": "f45c73bd-d733-4fe0-871b-49f270c56a75.11128",
      "location": {
        "lat": "38.33987045",
        "lng": "22.16767311"
      }
    },
    {
      "name": "Φλαμπουράκια",
      "id": "f45c73bd-d733-4fe0-871b-49f270c56a75.11129",
      "location": {
        "lat": "38.34236145",
        "lng": "22.16216087"
      }
    },
    {
      "name": "Πρασούδι",
      "id": "f45c73bd-d733-4fe0-871b-49f270c56a75.11130",
      "location": {
        "lat": "38.35184479",
        "lng": "22.12270927"
      }
    },
    {
      "name": "Λούστρα",
      "id": "f45c73bd-d733-4fe0-871b-49f270c56a75.11204",
      "location": {
        "lat": "38.6161232",
        "lng": "21.62301636"
      }
    }
  ],
  "Τ.Δ.Αργυρού": [
    {
      "name": "Αργυρόν",
      "id": "f45c73bd-d733-4fe0-871b-49f270c56a75.46",
      "location": {
        "lat": "38.30547714",
        "lng": "24.14486504"
      }
    },
    {
      "name": "Μπούφαλον",
      "id": "f45c73bd-d733-4fe0-871b-49f270c56a75.689",
      "location": {
        "lat": "38.29868317",
        "lng": "24.11948967"
      }
    },
    {
      "name": "'Αγιος Δημήτριος",
      "id": "f45c73bd-d733-4fe0-871b-49f270c56a75.690",
      "location": {
        "lat": "38.27966309",
        "lng": "24.13779449"
      }
    }
  ],
  "Τ.Δ.Οινοφύτων": [
    {
      "name": "Οινόφυτα",
      "id": "f45c73bd-d733-4fe0-871b-49f270c56a75.47",
      "location": {
        "lat": "38.30745316",
        "lng": "23.63618279"
      }
    },
    {
      "name": "Δήλεσι",
      "id": "f45c73bd-d733-4fe0-871b-49f270c56a75.778",
      "location": {
        "lat": "38.33931732",
        "lng": "23.6713047"
      }
    }
  ],
  "Τ.Δ.'Ασκρης": [
    {
      "name": "'Ασκρη",
      "id": "f45c73bd-d733-4fe0-871b-49f270c56a75.48",
      "location": {
        "lat": "38.31124115",
        "lng": "23.10839844"
      }
    }
  ],
  "Τ.Δ.Θηβαίων": [
    {
      "name": "Θήβαι",
      "id": "f45c73bd-d733-4fe0-871b-49f270c56a75.49",
      "location": {
        "lat": "38.32021332",
        "lng": "23.31565666"
      }
    }
  ],
  "Τ.Δ.Αγίας 'Αννας": [
    {
      "name": "Αγία 'Αννα",
      "id": "f45c73bd-d733-4fe0-871b-49f270c56a75.50",
      "location": {
        "lat": "38.31378174",
        "lng": "22.90222359"
      }
    },
    {
      "name": "Μονή Οσίου Σεραφείμ Δομβούς",
      "id": "f45c73bd-d733-4fe0-871b-49f270c56a75.819",
      "location": {
        "lat": "38.2780571",
        "lng": "22.84510231"
      }
    },
    {
      "name": "Ζελίτσα",
      "id": "f45c73bd-d733-4fe0-871b-49f270c56a75.820",
      "location": {
        "lat": "38.26845932",
        "lng": "22.79728317"
      }
    }
  ],
  "Τ.Δ.Βαγίων": [
    {
      "name": "Βάγια",
      "id": "f45c73bd-d733-4fe0-871b-49f270c56a75.51",
      "location": {
        "lat": "38.31472015",
        "lng": "23.17599869"
      }
    }
  ],
  "Τ.Δ.Τανάγρας": [
    {
      "name": "Τανάγρα",
      "id": "f45c73bd-d733-4fe0-871b-49f270c56a75.52",
      "location": {
        "lat": "38.32484055",
        "lng": "23.53582954"
      }
    },
    {
      "name": "Παναγία",
      "id": "f45c73bd-d733-4fe0-871b-49f270c56a75.779",
      "location": {
        "lat": "38.3376503",
        "lng": "23.54214478"
      }
    }
  ],
  "Τ.Δ.Μαυρομματίου": [
    {
      "name": "Μαυρομμάτιον",
      "id": "f45c73bd-d733-4fe0-871b-49f270c56a75.11831",
      "location": {
        "lat": "39.42102432",
        "lng": "21.69257736"
      }
    },
    {
      "name": "Γεώργιος Καραϊσκάκης",
      "id": "f45c73bd-d733-4fe0-871b-49f270c56a75.12450",
      "location": {
        "lat": "39.42298508",
        "lng": "21.66817474"
      }
    },
    {
      "name": "Μονή Αγίου Γεωργίου",
      "id": "f45c73bd-d733-4fe0-871b-49f270c56a75.12451",
      "location": {
        "lat": "39.41241074",
        "lng": "21.67564201"
      }
    }
  ],
  "Τ.Δ.Σχηματαρίου": [
    {
      "name": "Σχηματάριον",
      "id": "f45c73bd-d733-4fe0-871b-49f270c56a75.54",
      "location": {
        "lat": "38.34350204",
        "lng": "23.57950592"
      }
    },
    {
      "name": "Πλάκα Δήλεσι",
      "id": "f45c73bd-d733-4fe0-871b-49f270c56a75.777",
      "location": {
        "lat": "38.34392929",
        "lng": "23.66654778"
      }
    },
    {
      "name": "Οινόη",
      "id": "f45c73bd-d733-4fe0-871b-49f270c56a75.801",
      "location": {
        "lat": "38.31982803",
        "lng": "23.60731316"
      }
    }
  ],
  "Τ.Δ.Ευαγγελιστρίας": [
    {
      "name": "Ευαγγελίστρια",
      "id": "f45c73bd-d733-4fe0-871b-49f270c56a75.8995",
      "location": {
        "lat": "37.95603561",
        "lng": "22.77841377"
      }
    },
    {
      "name": "Μονή Ευαγγελιστρίας",
      "id": "f45c73bd-d733-4fe0-871b-49f270c56a75.817",
      "location": {
        "lat": "38.3483963",
        "lng": "23.03588486"
      }
    }
  ],
  "Τ.Δ.'Αρματος": [
    {
      "name": "'Αρμα",
      "id": "f45c73bd-d733-4fe0-871b-49f270c56a75.56",
      "location": {
        "lat": "38.34915924",
        "lng": "23.48454475"
      }
    }
  ],
  "Τ.Δ.Πρασίνου": [
    {
      "name": "Πράσινον",
      "id": "f45c73bd-d733-4fe0-871b-49f270c56a75.8803",
      "location": {
        "lat": "37.77923965",
        "lng": "22.1573391"
      }
    },
    {
      "name": "Παναγίτσα Πούντα",
      "id": "f45c73bd-d733-4fe0-871b-49f270c56a75.694",
      "location": {
        "lat": "38.33521652",
        "lng": "24.05219078"
      }
    },
    {
      "name": "Κεραμιδιά",
      "id": "f45c73bd-d733-4fe0-871b-49f270c56a75.9861",
      "location": {
        "lat": "37.70317841",
        "lng": "21.40205765"
      }
    },
    {
      "name": "Γλυκόριζο",
      "id": "f45c73bd-d733-4fe0-871b-49f270c56a75.9862",
      "location": {
        "lat": "37.70148468",
        "lng": "21.38693047"
      }
    },
    {
      "name": "Καλύβια Καρνέση",
      "id": "f45c73bd-d733-4fe0-871b-49f270c56a75.9985",
      "location": {
        "lat": "37.77503967",
        "lng": "22.18527222"
      }
    }
  ],
  "Τ.Δ.Κυριακίου": [
    {
      "name": "Κυριάκιον",
      "id": "f45c73bd-d733-4fe0-871b-49f270c56a75.58",
      "location": {
        "lat": "38.3508606",
        "lng": "22.78624725"
      }
    },
    {
      "name": "Ταρσός",
      "id": "f45c73bd-d733-4fe0-871b-49f270c56a75.786",
      "location": {
        "lat": "38.33530807",
        "lng": "22.69122696"
      }
    },
    {
      "name": "'Αγιος Αθανάσιος",
      "id": "f45c73bd-d733-4fe0-871b-49f270c56a75.787",
      "location": {
        "lat": "38.32447815",
        "lng": "22.73437881"
      }
    },
    {
      "name": "Καρυώτι",
      "id": "f45c73bd-d733-4fe0-871b-49f270c56a75.788",
      "location": {
        "lat": "38.30577469",
        "lng": "22.71051598"
      }
    },
    {
      "name": "Παναγία Καλαμιώτισσα",
      "id": "f45c73bd-d733-4fe0-871b-49f270c56a75.794",
      "location": {
        "lat": "38.28620148",
        "lng": "22.76564789"
      }
    }
  ],
  "Τ.Δ.Αγίας Τριάδος": [
    {
      "name": "Αγία Τριάς",
      "id": "f45c73bd-d733-4fe0-871b-49f270c56a75.11862",
      "location": {
        "lat": "39.46100616",
        "lng": "21.89641953"
      }
    },
    {
      "name": "Κουφονήσιον",
      "id": "f45c73bd-d733-4fe0-871b-49f270c56a75.5851",
      "location": {
        "lat": "34.93442917",
        "lng": "26.13620949"
      }
    },
    {
      "name": "Αγία Τριάδα",
      "id": "f45c73bd-d733-4fe0-871b-49f270c56a75.8653",
      "location": {
        "lat": "37.63429642",
        "lng": "22.80477524"
      }
    },
    {
      "name": "Μονή Κοιμήσεως Θεοτόκου Ξενίας",
      "id": "f45c73bd-d733-4fe0-871b-49f270c56a75.12284",
      "location": {
        "lat": "39.08156204",
        "lng": "22.8243084"
      }
    }
  ],
  "Τ.Δ.Κορωνείας": [
    {
      "name": "Κορώνεια",
      "id": "f45c73bd-d733-4fe0-871b-49f270c56a75.60",
      "location": {
        "lat": "38.35681915",
        "lng": "22.95755005"
      }
    },
    {
      "name": "Αγία Παρασκευή",
      "id": "f45c73bd-d733-4fe0-871b-49f270c56a75.799",
      "location": {
        "lat": "38.39174652",
        "lng": "22.98181152"
      }
    }
  ],
  "Τ.Δ.Ελεώνος": [
    {
      "name": "Ελεών",
      "id": "f45c73bd-d733-4fe0-871b-49f270c56a75.61",
      "location": {
        "lat": "38.36110306",
        "lng": "23.44238472"
      }
    }
  ],
  "Τ.Δ.Κοσκίνων": [
    {
      "name": "Κόσκινα",
      "id": "f45c73bd-d733-4fe0-871b-49f270c56a75.62",
      "location": {
        "lat": "38.36491013",
        "lng": "24.18372154"
      }
    },
    {
      "name": "Αλώνια",
      "id": "f45c73bd-d733-4fe0-871b-49f270c56a75.688",
      "location": {
        "lat": "38.37059021",
        "lng": "24.1796627"
      }
    }
  ],
  "Τ.Δ.Πέτρας": [
    {
      "name": "Πέτρα",
      "id": "f45c73bd-d733-4fe0-871b-49f270c56a75.8500",
      "location": {
        "lat": "37.42074203",
        "lng": "21.94768333"
      }
    },
    {
      "name": "Μιραδέλλια",
      "id": "f45c73bd-d733-4fe0-871b-49f270c56a75.1396",
      "location": {
        "lat": "39.32686234",
        "lng": "26.1823349"
      }
    },
    {
      "name": "'Αγιος Γεώργιος",
      "id": "f45c73bd-d733-4fe0-871b-49f270c56a75.1397",
      "location": {
        "lat": "39.33205414",
        "lng": "26.14256859"
      }
    },
    {
      "name": "Πετρίον",
      "id": "f45c73bd-d733-4fe0-871b-49f270c56a75.1398",
      "location": {
        "lat": "39.31653976",
        "lng": "26.19566536"
      }
    },
    {
      "name": "'Ανω Πέτρα",
      "id": "f45c73bd-d733-4fe0-871b-49f270c56a75.2837",
      "location": {
        "lat": "39.16372299",
        "lng": "21.11100197"
      }
    },
    {
      "name": "Κέδρος",
      "id": "f45c73bd-d733-4fe0-871b-49f270c56a75.3571",
      "location": {
        "lat": "39.16214371",
        "lng": "21.0977478"
      }
    },
    {
      "name": "Σέλινα",
      "id": "f45c73bd-d733-4fe0-871b-49f270c56a75.3572",
      "location": {
        "lat": "39.18502426",
        "lng": "21.11109161"
      }
    }
  ],
  "Τ.Δ.Δύστου": [
    {
      "name": "Δύστος",
      "id": "f45c73bd-d733-4fe0-871b-49f270c56a75.64",
      "location": {
        "lat": "38.3716774",
        "lng": "24.12357903"
      }
    },
    {
      "name": "Κουτουμουλάς",
      "id": "f45c73bd-d733-4fe0-871b-49f270c56a75.693",
      "location": {
        "lat": "38.37919617",
        "lng": "24.10830498"
      }
    }
  ],
  "Τ.Δ.Υψηλάντου": [
    {
      "name": "Υψηλάντης",
      "id": "f45c73bd-d733-4fe0-871b-49f270c56a75.65",
      "location": {
        "lat": "38.37033463",
        "lng": "23.01195335"
      }
    }
  ],
  "Τ.Δ.Αλιάρτου": [
    {
      "name": "Αλίαρτος",
      "id": "f45c73bd-d733-4fe0-871b-49f270c56a75.66",
      "location": {
        "lat": "38.37903976",
        "lng": "23.11336899"
      }
    },
    {
      "name": "Μάζιον",
      "id": "f45c73bd-d733-4fe0-871b-49f270c56a75.816",
      "location": {
        "lat": "38.35905075",
        "lng": "23.08436966"
      }
    }
  ],
  "Τ.Δ.Παραλίας Αυλίδος": [
    {
      "name": "Παραλία Αυλίδος",
      "id": "f45c73bd-d733-4fe0-871b-49f270c56a75.67",
      "location": {
        "lat": "38.38061523",
        "lng": "23.62718391"
      }
    }
  ],
  "Τ.Δ.Αντικύρας": [
    {
      "name": "Αντικύρα",
      "id": "f45c73bd-d733-4fe0-871b-49f270c56a75.68",
      "location": {
        "lat": "38.37545395",
        "lng": "22.62844276"
      }
    },
    {
      "name": "'Αγιος Ισίδωρος",
      "id": "f45c73bd-d733-4fe0-871b-49f270c56a75.782",
      "location": {
        "lat": "38.36059189",
        "lng": "22.61472702"
      }
    },
    {
      "name": "Αγία Σωτήρα",
      "id": "f45c73bd-d733-4fe0-871b-49f270c56a75.783",
      "location": {
        "lat": "38.35988998",
        "lng": "22.60855865"
      }
    }
  ],
  "Τ.Δ.Βέλους": [
    {
      "name": "Βέλος",
      "id": "f45c73bd-d733-4fe0-871b-49f270c56a75.69",
      "location": {
        "lat": "38.38541412",
        "lng": "24.08935738"
      }
    }
  ],
  "Τ.Δ.Σωληναρίου": [
    {
      "name": "Σωληνάριον",
      "id": "f45c73bd-d733-4fe0-871b-49f270c56a75.70",
      "location": {
        "lat": "38.38158798",
        "lng": "22.9896431"
      }
    }
  ],
  "Τ.Δ.Καλοχωρίου-Παντειχίου (Καλού Χωρίου-Παντειχίου)": [
    {
      "name": "Καλοχώρι-Παντείχι",
      "id": "f45c73bd-d733-4fe0-871b-49f270c56a75.71",
      "location": {
        "lat": "38.38757706",
        "lng": "23.59308815"
      }
    }
  ],
  "Τ.Δ.Υπάτου": [
    {
      "name": "Ύπατον",
      "id": "f45c73bd-d733-4fe0-871b-49f270c56a75.72",
      "location": {
        "lat": "38.38591766",
        "lng": "23.39161491"
      }
    },
    {
      "name": "Μονή Μεταμορφώσεως Σωτήρος Σαγματά",
      "id": "f45c73bd-d733-4fe0-871b-49f270c56a75.813",
      "location": {
        "lat": "38.39751434",
        "lng": "23.40869141"
      }
    }
  ],
  "Τ.Δ.Αμαρύνθου": [
    {
      "name": "Αμάρυνθος",
      "id": "f45c73bd-d733-4fe0-871b-49f270c56a75.73",
      "location": {
        "lat": "38.39031219",
        "lng": "23.88158417"
      }
    },
    {
      "name": "Γαλάζια Νερά",
      "id": "f45c73bd-d733-4fe0-871b-49f270c56a75.699",
      "location": {
        "lat": "38.38420105",
        "lng": "23.91240501"
      }
    }
  ],
  "Τ.Δ.Ερετρίας": [
    {
      "name": "Ερέτρια",
      "id": "f45c73bd-d733-4fe0-871b-49f270c56a75.11694",
      "location": {
        "lat": "39.29415131",
        "lng": "22.61375046"
      }
    },
    {
      "name": "Γέροντας",
      "id": "f45c73bd-d733-4fe0-871b-49f270c56a75.765",
      "location": {
        "lat": "38.44900131",
        "lng": "23.81580925"
      }
    },
    {
      "name": "Μαγούλα",
      "id": "f45c73bd-d733-4fe0-871b-49f270c56a75.766",
      "location": {
        "lat": "38.40209579",
        "lng": "23.81706619"
      }
    },
    {
      "name": "Αγία Τριάς",
      "id": "f45c73bd-d733-4fe0-871b-49f270c56a75.767",
      "location": {
        "lat": "38.38192368",
        "lng": "23.81216431"
      }
    },
    {
      "name": "Μαλακώντα",
      "id": "f45c73bd-d733-4fe0-871b-49f270c56a75.768",
      "location": {
        "lat": "38.39646912",
        "lng": "23.75331497"
      }
    },
    {
      "name": "'Αγιος Χαράλαμπος",
      "id": "f45c73bd-d733-4fe0-871b-49f270c56a75.12307",
      "location": {
        "lat": "39.28580856",
        "lng": "22.60797691"
      }
    },
    {
      "name": "Αργιθέα",
      "id": "f45c73bd-d733-4fe0-871b-49f270c56a75.12308",
      "location": {
        "lat": "39.29545212",
        "lng": "22.64117622"
      }
    },
    {
      "name": "Ασπρόγεια",
      "id": "f45c73bd-d733-4fe0-871b-49f270c56a75.12309",
      "location": {
        "lat": "39.31640625",
        "lng": "22.63674355"
      }
    },
    {
      "name": "Παλαιόμυλος",
      "id": "f45c73bd-d733-4fe0-871b-49f270c56a75.12310",
      "location": {
        "lat": "39.29011536",
        "lng": "22.59202957"
      }
    }
  ],
  "Τ.Δ.Φάρου": [
    {
      "name": "Φάρος",
      "id": "f45c73bd-d733-4fe0-871b-49f270c56a75.75",
      "location": {
        "lat": "38.39659119",
        "lng": "23.61785126"
      }
    }
  ],
  "Τ.Δ.Αγίου Γεωργίου": [
    {
      "name": "'Αγιος Γεώργιος",
      "id": "f45c73bd-d733-4fe0-871b-49f270c56a75.11707",
      "location": {
        "lat": "39.29460907",
        "lng": "21.83311272"
      }
    },
    {
      "name": "Μεγάλη Σπηλιά",
      "id": "f45c73bd-d733-4fe0-871b-49f270c56a75.10444",
      "location": {
        "lat": "36.53956985",
        "lng": "22.98893547"
      }
    },
    {
      "name": "Βιγκλάφια",
      "id": "f45c73bd-d733-4fe0-871b-49f270c56a75.10445",
      "location": {
        "lat": "36.52400589",
        "lng": "22.98310852"
      }
    },
    {
      "name": "Μελίσσιον",
      "id": "f45c73bd-d733-4fe0-871b-49f270c56a75.10602",
      "location": {
        "lat": "37.40678024",
        "lng": "22.59050369"
      }
    },
    {
      "name": "Βάθηα",
      "id": "f45c73bd-d733-4fe0-871b-49f270c56a75.10603",
      "location": {
        "lat": "37.40485001",
        "lng": "22.57296181"
      }
    },
    {
      "name": "Αετοχώριον",
      "id": "f45c73bd-d733-4fe0-871b-49f270c56a75.10604",
      "location": {
        "lat": "37.39224625",
        "lng": "22.59570694"
      }
    },
    {
      "name": "Ξηραίικα",
      "id": "f45c73bd-d733-4fe0-871b-49f270c56a75.11268",
      "location": {
        "lat": "38.39987564",
        "lng": "21.53152275"
      }
    },
    {
      "name": "Κουτσοχέριον",
      "id": "f45c73bd-d733-4fe0-871b-49f270c56a75.11269",
      "location": {
        "lat": "38.41289902",
        "lng": "21.56944084"
      }
    },
    {
      "name": "Κοκώρη",
      "id": "f45c73bd-d733-4fe0-871b-49f270c56a75.11270",
      "location": {
        "lat": "38.37366486",
        "lng": "21.54472351"
      }
    }
  ],
  "Τ.Δ.Κριεζών": [
    {
      "name": "Κριεζά",
      "id": "f45c73bd-d733-4fe0-871b-49f270c56a75.77",
      "location": {
        "lat": "38.39665222",
        "lng": "24.13552666"
      }
    },
    {
      "name": "Δροσιά",
      "id": "f45c73bd-d733-4fe0-871b-49f270c56a75.684",
      "location": {
        "lat": "38.41477203",
        "lng": "24.13390923"
      }
    }
  ],
  "Τ.Δ.'Ανω Βάθειας": [
    {
      "name": "'Ανω Βάθεια",
      "id": "f45c73bd-d733-4fe0-871b-49f270c56a75.78",
      "location": {
        "lat": "38.40346146",
        "lng": "23.90957451"
      }
    },
    {
      "name": "Κουκάκι",
      "id": "f45c73bd-d733-4fe0-871b-49f270c56a75.700",
      "location": {
        "lat": "38.39579773",
        "lng": "23.89513969"
      }
    },
    {
      "name": "Μονή Αγίου Νικολάου",
      "id": "f45c73bd-d733-4fe0-871b-49f270c56a75.701",
      "location": {
        "lat": "38.41872787",
        "lng": "23.92954063"
      }
    }
  ],
  "Τ.Δ.Βαθέος": [
    {
      "name": "Βαθύ",
      "id": "f45c73bd-d733-4fe0-871b-49f270c56a75.2356",
      "location": {
        "lat": "37.76177597",
        "lng": "23.48113441"
      }
    },
    {
      "name": "Ριτσώνα",
      "id": "f45c73bd-d733-4fe0-871b-49f270c56a75.780",
      "location": {
        "lat": "38.40788651",
        "lng": "23.5221405"
      }
    },
    {
      "name": "Μικρόν Βαθύ",
      "id": "f45c73bd-d733-4fe0-871b-49f270c56a75.811",
      "location": {
        "lat": "38.43359756",
        "lng": "23.59027672"
      }
    },
    {
      "name": "Παραλία",
      "id": "f45c73bd-d733-4fe0-871b-49f270c56a75.812",
      "location": {
        "lat": "38.41490173",
        "lng": "23.60272408"
      }
    },
    {
      "name": "Αγία Ζώνη",
      "id": "f45c73bd-d733-4fe0-871b-49f270c56a75.1652",
      "location": {
        "lat": "37.74931335",
        "lng": "27.00565147"
      }
    },
    {
      "name": "Αγία Μαρκέλλα",
      "id": "f45c73bd-d733-4fe0-871b-49f270c56a75.1653",
      "location": {
        "lat": "37.75923538",
        "lng": "26.94229889"
      }
    },
    {
      "name": "Αγία Τριάδα",
      "id": "f45c73bd-d733-4fe0-871b-49f270c56a75.1654",
      "location": {
        "lat": "37.74652481",
        "lng": "27.00626755"
      }
    },
    {
      "name": "'Αη Θανάσης",
      "id": "f45c73bd-d733-4fe0-871b-49f270c56a75.1655",
      "location": {
        "lat": "37.7159462",
        "lng": "26.98864365"
      }
    },
    {
      "name": "Βαρέλλα",
      "id": "f45c73bd-d733-4fe0-871b-49f270c56a75.1656",
      "location": {
        "lat": "37.73408127",
        "lng": "26.98421669"
      }
    },
    {
      "name": "Δροσιά",
      "id": "f45c73bd-d733-4fe0-871b-49f270c56a75.1657",
      "location": {
        "lat": "37.73032761",
        "lng": "26.9934845"
      }
    },
    {
      "name": "Ζερβού",
      "id": "f45c73bd-d733-4fe0-871b-49f270c56a75.1658",
      "location": {
        "lat": "37.73445129",
        "lng": "26.93701363"
      }
    },
    {
      "name": "Ζωοδόχος Πηγή",
      "id": "f45c73bd-d733-4fe0-871b-49f270c56a75.1659",
      "location": {
        "lat": "37.7665596",
        "lng": "27.02603149"
      }
    },
    {
      "name": "Καμάρα",
      "id": "f45c73bd-d733-4fe0-871b-49f270c56a75.1660",
      "location": {
        "lat": "37.75980759",
        "lng": "27.00682449"
      }
    },
    {
      "name": "Κέδρον",
      "id": "f45c73bd-d733-4fe0-871b-49f270c56a75.1661",
      "location": {
        "lat": "37.76767731",
        "lng": "26.92364311"
      }
    },
    {
      "name": "Κουμαριώνας",
      "id": "f45c73bd-d733-4fe0-871b-49f270c56a75.1662",
      "location": {
        "lat": "37.74419785",
        "lng": "26.97086716"
      }
    },
    {
      "name": "Μεσόκαμπος",
      "id": "f45c73bd-d733-4fe0-871b-49f270c56a75.1663",
      "location": {
        "lat": "37.71202469",
        "lng": "26.97293091"
      }
    },
    {
      "name": "Μωραϊτοχώρι",
      "id": "f45c73bd-d733-4fe0-871b-49f270c56a75.1664",
      "location": {
        "lat": "37.74343491",
        "lng": "26.97837639"
      }
    },
    {
      "name": "Νικόλα",
      "id": "f45c73bd-d733-4fe0-871b-49f270c56a75.1665",
      "location": {
        "lat": "37.74128342",
        "lng": "26.99205208"
      }
    },
    {
      "name": "Παναΐτσα",
      "id": "f45c73bd-d733-4fe0-871b-49f270c56a75.1666",
      "location": {
        "lat": "37.75511551",
        "lng": "26.98626518"
      }
    },
    {
      "name": "Πλάτανος",
      "id": "f45c73bd-d733-4fe0-871b-49f270c56a75.1667",
      "location": {
        "lat": "37.72719955",
        "lng": "26.97401619"
      }
    },
    {
      "name": "Τουρκομυλωνάς",
      "id": "f45c73bd-d733-4fe0-871b-49f270c56a75.1668",
      "location": {
        "lat": "37.70995331",
        "lng": "26.99090958"
      }
    },
    {
      "name": "Φλόκα",
      "id": "f45c73bd-d733-4fe0-871b-49f270c56a75.1669",
      "location": {
        "lat": "37.75520706",
        "lng": "26.95251656"
      }
    }
  ],
  "Τ.Δ.Πετριών": [
    {
      "name": "Πετριαί",
      "id": "f45c73bd-d733-4fe0-871b-49f270c56a75.80",
      "location": {
        "lat": "38.40458298",
        "lng": "24.16621017"
      }
    },
    {
      "name": "'Αγιοι Απόστολοι",
      "id": "f45c73bd-d733-4fe0-871b-49f270c56a75.685",
      "location": {
        "lat": "38.40959167",
        "lng": "24.19417381"
      }
    },
    {
      "name": "Κλιμάκι",
      "id": "f45c73bd-d733-4fe0-871b-49f270c56a75.686",
      "location": {
        "lat": "38.40226364",
        "lng": "24.18195152"
      }
    },
    {
      "name": "Λιάναμμο",
      "id": "f45c73bd-d733-4fe0-871b-49f270c56a75.687",
      "location": {
        "lat": "38.39377975",
        "lng": "24.17956352"
      }
    }
  ],
  "Τ.Δ.Λεπούρων": [
    {
      "name": "Λέπουρα",
      "id": "f45c73bd-d733-4fe0-871b-49f270c56a75.81",
      "location": {
        "lat": "38.4041748",
        "lng": "24.10703468"
      }
    }
  ],
  "Τ.Δ.Αλιβερίου": [
    {
      "name": "Αλιβέριον",
      "id": "f45c73bd-d733-4fe0-871b-49f270c56a75.82",
      "location": {
        "lat": "38.40723801",
        "lng": "24.03595924"
      }
    },
    {
      "name": "Λάτας",
      "id": "f45c73bd-d733-4fe0-871b-49f270c56a75.680",
      "location": {
        "lat": "38.42324448",
        "lng": "24.06147957"
      }
    },
    {
      "name": "Κατακαλός",
      "id": "f45c73bd-d733-4fe0-871b-49f270c56a75.681",
      "location": {
        "lat": "38.41830444",
        "lng": "24.08865738"
      }
    },
    {
      "name": "Ανθούπολη",
      "id": "f45c73bd-d733-4fe0-871b-49f270c56a75.682",
      "location": {
        "lat": "38.38576889",
        "lng": "24.05248451"
      }
    },
    {
      "name": "Μηλάκι",
      "id": "f45c73bd-d733-4fe0-871b-49f270c56a75.683",
      "location": {
        "lat": "38.38113403",
        "lng": "24.05948257"
      }
    }
  ],
  "Τ.Δ.Αλαλκομενών": [
    {
      "name": "Αλαλκομεναί",
      "id": "f45c73bd-d733-4fe0-871b-49f270c56a75.83",
      "location": {
        "lat": "38.40753555",
        "lng": "22.98395348"
      }
    },
    {
      "name": "'Αγιος Αθανάσιος",
      "id": "f45c73bd-d733-4fe0-871b-49f270c56a75.818",
      "location": {
        "lat": "38.41646576",
        "lng": "22.99837112"
      }
    }
  ],
  "Τ.Δ.Στειρίου": [
    {
      "name": "Στείριον",
      "id": "f45c73bd-d733-4fe0-871b-49f270c56a75.84",
      "location": {
        "lat": "38.40587997",
        "lng": "22.71062088"
      }
    },
    {
      "name": "Μονή Οσίου Λουκά",
      "id": "f45c73bd-d733-4fe0-871b-49f270c56a75.800",
      "location": {
        "lat": "38.39315414",
        "lng": "22.74615288"
      }
    }
  ],
  "Τ.Δ.Αγίου Νικολάου": [
    {
      "name": "'Αγιος Νικόλαος",
      "id": "f45c73bd-d733-4fe0-871b-49f270c56a75.11943",
      "location": {
        "lat": "39.54697037",
        "lng": "21.35938835"
      }
    },
    {
      "name": "Παλιουρή",
      "id": "f45c73bd-d733-4fe0-871b-49f270c56a75.3797",
      "location": {
        "lat": "39.54629517",
        "lng": "20.62639809"
      }
    },
    {
      "name": "Νότος",
      "id": "f45c73bd-d733-4fe0-871b-49f270c56a75.4312",
      "location": {
        "lat": "39.44582748",
        "lng": "20.0006237"
      }
    },
    {
      "name": "Ρουμανάδες",
      "id": "f45c73bd-d733-4fe0-871b-49f270c56a75.4313",
      "location": {
        "lat": "39.43693924",
        "lng": "19.99146271"
      }
    },
    {
      "name": "'Αγιοι Πάντες",
      "id": "f45c73bd-d733-4fe0-871b-49f270c56a75.5968",
      "location": {
        "lat": "35.19743347",
        "lng": "25.72986984"
      }
    },
    {
      "name": "Μικρονήσιον",
      "id": "f45c73bd-d733-4fe0-871b-49f270c56a75.5969",
      "location": {
        "lat": "35.2015152",
        "lng": "25.73001289"
      }
    },
    {
      "name": "Ξηρόκαμπος",
      "id": "f45c73bd-d733-4fe0-871b-49f270c56a75.5970",
      "location": {
        "lat": "35.20067215",
        "lng": "25.70249367"
      }
    },
    {
      "name": "Πίσσιδος",
      "id": "f45c73bd-d733-4fe0-871b-49f270c56a75.5971",
      "location": {
        "lat": "35.20475006",
        "lng": "25.69962692"
      }
    },
    {
      "name": "Κατσίκια",
      "id": "f45c73bd-d733-4fe0-871b-49f270c56a75.5972",
      "location": {
        "lat": "35.21346283",
        "lng": "25.70195007"
      }
    },
    {
      "name": "Ελληνικά",
      "id": "f45c73bd-d733-4fe0-871b-49f270c56a75.5973",
      "location": {
        "lat": "35.22732925",
        "lng": "25.71949959"
      }
    },
    {
      "name": "Αϊμπελίτσι",
      "id": "f45c73bd-d733-4fe0-871b-49f270c56a75.7581",
      "location": {
        "lat": "40.22802353",
        "lng": "23.7710495"
      }
    },
    {
      "name": "Βουρβουρού",
      "id": "f45c73bd-d733-4fe0-871b-49f270c56a75.7582",
      "location": {
        "lat": "40.18128967",
        "lng": "23.78686142"
      }
    },
    {
      "name": "Γαλήνη",
      "id": "f45c73bd-d733-4fe0-871b-49f270c56a75.7583",
      "location": {
        "lat": "40.21961975",
        "lng": "23.75796127"
      }
    },
    {
      "name": "Διάπορος",
      "id": "f45c73bd-d733-4fe0-871b-49f270c56a75.7584",
      "location": {
        "lat": "40.21378326",
        "lng": "23.77220535"
      }
    },
    {
      "name": "Ελαιώνας",
      "id": "f45c73bd-d733-4fe0-871b-49f270c56a75.7585",
      "location": {
        "lat": "40.27963638",
        "lng": "23.69432449"
      }
    },
    {
      "name": "Ελιά",
      "id": "f45c73bd-d733-4fe0-871b-49f270c56a75.7586",
      "location": {
        "lat": "40.22275543",
        "lng": "23.76220131"
      }
    },
    {
      "name": "Ζωγράφου",
      "id": "f45c73bd-d733-4fe0-871b-49f270c56a75.7587",
      "location": {
        "lat": "40.17522049",
        "lng": "23.83451462"
      }
    },
    {
      "name": "Λαγονήσι",
      "id": "f45c73bd-d733-4fe0-871b-49f270c56a75.7588",
      "location": {
        "lat": "40.22611618",
        "lng": "23.74471474"
      }
    },
    {
      "name": "Όρμος Παναγίας",
      "id": "f45c73bd-d733-4fe0-871b-49f270c56a75.7589",
      "location": {
        "lat": "40.23245621",
        "lng": "23.72938156"
      }
    },
    {
      "name": "Περιστέρι",
      "id": "f45c73bd-d733-4fe0-871b-49f270c56a75.7590",
      "location": {
        "lat": "40.2264328",
        "lng": "23.76385689"
      }
    },
    {
      "name": "Πύργος",
      "id": "f45c73bd-d733-4fe0-871b-49f270c56a75.7591",
      "location": {
        "lat": "40.26706696",
        "lng": "23.70152473"
      }
    },
    {
      "name": "Σαλονικιού",
      "id": "f45c73bd-d733-4fe0-871b-49f270c56a75.7592",
      "location": {
        "lat": "40.29336548",
        "lng": "23.69306183"
      }
    },
    {
      "name": "Σχοινιά",
      "id": "f45c73bd-d733-4fe0-871b-49f270c56a75.7593",
      "location": {
        "lat": "40.26476669",
        "lng": "23.7016449"
      }
    },
    {
      "name": "Φτερωτή",
      "id": "f45c73bd-d733-4fe0-871b-49f270c56a75.7594",
      "location": {
        "lat": "40.2055397",
        "lng": "23.76052666"
      }
    },
    {
      "name": "Πλατάνιον",
      "id": "f45c73bd-d733-4fe0-871b-49f270c56a75.8825",
      "location": {
        "lat": "37.81163406",
        "lng": "22.52695274"
      }
    },
    {
      "name": "Εξοχή",
      "id": "f45c73bd-d733-4fe0-871b-49f270c56a75.9671",
      "location": {
        "lat": "37.7425766",
        "lng": "22.4744873"
      }
    },
    {
      "name": "'Αγιος Δημήτριος",
      "id": "f45c73bd-d733-4fe0-871b-49f270c56a75.10160",
      "location": {
        "lat": "36.80883789",
        "lng": "22.29503059"
      }
    },
    {
      "name": "Λεύκα",
      "id": "f45c73bd-d733-4fe0-871b-49f270c56a75.11323",
      "location": {
        "lat": "38.90510559",
        "lng": "21.85615349"
      }
    }
  ],
  "Τ.Δ.Μουρικίου": [
    {
      "name": "Μουρίκιον",
      "id": "f45c73bd-d733-4fe0-871b-49f270c56a75.87",
      "location": {
        "lat": "38.42107391",
        "lng": "23.35294342"
      }
    },
    {
      "name": "Καστρί",
      "id": "f45c73bd-d733-4fe0-871b-49f270c56a75.814",
      "location": {
        "lat": "38.41693497",
        "lng": "23.32690048"
      }
    },
    {
      "name": "Πλατανάκια",
      "id": "f45c73bd-d733-4fe0-871b-49f270c56a75.815",
      "location": {
        "lat": "38.43338013",
        "lng": "23.40411377"
      }
    }
  ],
  "Τ.Δ.Βασιλικού": [
    {
      "name": "Βασιλικόν",
      "id": "f45c73bd-d733-4fe0-871b-49f270c56a75.9158",
      "location": {
        "lat": "38.11638641",
        "lng": "21.72036552"
      }
    },
    {
      "name": "Βασιλικός",
      "id": "f45c73bd-d733-4fe0-871b-49f270c56a75.3886",
      "location": {
        "lat": "37.71372223",
        "lng": "20.97938538"
      }
    },
    {
      "name": "'Αγιος Ιωάννης",
      "id": "f45c73bd-d733-4fe0-871b-49f270c56a75.4383",
      "location": {
        "lat": "37.72784042",
        "lng": "20.94502068"
      }
    },
    {
      "name": "'Ανω Βασιλικός",
      "id": "f45c73bd-d733-4fe0-871b-49f270c56a75.4384",
      "location": {
        "lat": "37.72985458",
        "lng": "20.96710396"
      }
    },
    {
      "name": "Ξηροκάστελλον",
      "id": "f45c73bd-d733-4fe0-871b-49f270c56a75.4385",
      "location": {
        "lat": "37.74117279",
        "lng": "20.94447327"
      }
    },
    {
      "name": "Καλονήσι",
      "id": "f45c73bd-d733-4fe0-871b-49f270c56a75.4517",
      "location": {
        "lat": "37.70110703",
        "lng": "20.94531441"
      }
    },
    {
      "name": "Στέρνα",
      "id": "f45c73bd-d733-4fe0-871b-49f270c56a75.9313",
      "location": {
        "lat": "38.12339401",
        "lng": "21.71290398"
      }
    },
    {
      "name": "Κυδωνίαι",
      "id": "f45c73bd-d733-4fe0-871b-49f270c56a75.9314",
      "location": {
        "lat": "38.11702728",
        "lng": "21.73265839"
      }
    },
    {
      "name": "Αγριλιά",
      "id": "f45c73bd-d733-4fe0-871b-49f270c56a75.9315",
      "location": {
        "lat": "38.12422562",
        "lng": "21.70570755"
      }
    },
    {
      "name": "Στεφάνη",
      "id": "f45c73bd-d733-4fe0-871b-49f270c56a75.9316",
      "location": {
        "lat": "38.12692642",
        "lng": "21.69743729"
      }
    }
  ],
  "Τ.Δ.Λαφυστίου": [
    {
      "name": "Λαφύστιον",
      "id": "f45c73bd-d733-4fe0-871b-49f270c56a75.89",
      "location": {
        "lat": "38.42690277",
        "lng": "22.9181366"
      }
    }
  ],
  "Τ.Δ.Διστόμου": [
    {
      "name": "Δίστομον",
      "id": "f45c73bd-d733-4fe0-871b-49f270c56a75.90",
      "location": {
        "lat": "38.42678452",
        "lng": "22.66398811"
      }
    },
    {
      "name": "'Αγιος Νικόλαος",
      "id": "f45c73bd-d733-4fe0-871b-49f270c56a75.784",
      "location": {
        "lat": "38.3740921",
        "lng": "22.67451286"
      }
    },
    {
      "name": "Παραλία Διστόμου",
      "id": "f45c73bd-d733-4fe0-871b-49f270c56a75.785",
      "location": {
        "lat": "38.38456726",
        "lng": "22.6534481"
      }
    }
  ],
  "Τ.Δ.Νέας Λαμψάκου": [
    {
      "name": "Νέα Λάμψακος",
      "id": "f45c73bd-d733-4fe0-871b-49f270c56a75.91",
      "location": {
        "lat": "38.43554688",
        "lng": "23.62615967"
      }
    }
  ],
  "Τ.Δ.Γυμνού": [
    {
      "name": "Γυμνόν",
      "id": "f45c73bd-d733-4fe0-871b-49f270c56a75.8791",
      "location": {
        "lat": "37.77304459",
        "lng": "22.5722065"
      }
    },
    {
      "name": "Μεταμόρφωσις",
      "id": "f45c73bd-d733-4fe0-871b-49f270c56a75.697",
      "location": {
        "lat": "38.43421936",
        "lng": "23.90494919"
      }
    },
    {
      "name": "Τσιρίστρα",
      "id": "f45c73bd-d733-4fe0-871b-49f270c56a75.9672",
      "location": {
        "lat": "37.73251724",
        "lng": "22.5388298"
      }
    }
  ],
  "Τ.Δ.Λεβαδέων": [
    {
      "name": "Λεβάδεια",
      "id": "f45c73bd-d733-4fe0-871b-49f270c56a75.93",
      "location": {
        "lat": "38.43194199",
        "lng": "22.87306213"
      }
    },
    {
      "name": "Τσουκαλάδες",
      "id": "f45c73bd-d733-4fe0-871b-49f270c56a75.789",
      "location": {
        "lat": "38.45339584",
        "lng": "22.79898643"
      }
    },
    {
      "name": "Τζιμαίικα",
      "id": "f45c73bd-d733-4fe0-871b-49f270c56a75.790",
      "location": {
        "lat": "38.45486832",
        "lng": "22.84647751"
      }
    },
    {
      "name": "Περαχώριον",
      "id": "f45c73bd-d733-4fe0-871b-49f270c56a75.791",
      "location": {
        "lat": "38.45425415",
        "lng": "22.86167526"
      }
    },
    {
      "name": "Ανάληψις",
      "id": "f45c73bd-d733-4fe0-871b-49f270c56a75.792",
      "location": {
        "lat": "38.40686035",
        "lng": "22.83050537"
      }
    },
    {
      "name": "Ελικών",
      "id": "f45c73bd-d733-4fe0-871b-49f270c56a75.793",
      "location": {
        "lat": "38.36299133",
        "lng": "22.83805466"
      }
    },
    {
      "name": "'Αγιος Νικόλαος",
      "id": "f45c73bd-d733-4fe0-871b-49f270c56a75.795",
      "location": {
        "lat": "38.46052551",
        "lng": "22.90810776"
      }
    },
    {
      "name": "Σταθμός",
      "id": "f45c73bd-d733-4fe0-871b-49f270c56a75.796",
      "location": {
        "lat": "38.4668045",
        "lng": "22.92476273"
      }
    }
  ],
  "Τ.Δ.Μύτικα": [
    {
      "name": "Μύτικας",
      "id": "f45c73bd-d733-4fe0-871b-49f270c56a75.10928",
      "location": {
        "lat": "38.66594315",
        "lng": "20.94276619"
      }
    }
  ],
  "Τ.Δ.Αγίου Λουκά": [
    {
      "name": "'Αγιος Λουκάς",
      "id": "f45c73bd-d733-4fe0-871b-49f270c56a75.6668",
      "location": {
        "lat": "40.71752167",
        "lng": "22.29190636"
      }
    },
    {
      "name": "Παραμερίται",
      "id": "f45c73bd-d733-4fe0-871b-49f270c56a75.678",
      "location": {
        "lat": "38.49285507",
        "lng": "24.01207352"
      }
    },
    {
      "name": "Πρινιάς",
      "id": "f45c73bd-d733-4fe0-871b-49f270c56a75.679",
      "location": {
        "lat": "38.43009186",
        "lng": "24.03224182"
      }
    }
  ],
  "Τ.Δ.Φύλλων": [
    {
      "name": "Φύλλα",
      "id": "f45c73bd-d733-4fe0-871b-49f270c56a75.96",
      "location": {
        "lat": "38.4405098",
        "lng": "23.68067551"
      }
    },
    {
      "name": "Μονή Αγίου Γεωργίου 'Αρμα",
      "id": "f45c73bd-d733-4fe0-871b-49f270c56a75.769",
      "location": {
        "lat": "38.44094467",
        "lng": "23.76673889"
      }
    },
    {
      "name": "Πανόραμα",
      "id": "f45c73bd-d733-4fe0-871b-49f270c56a75.770",
      "location": {
        "lat": "38.41423416",
        "lng": "23.74381256"
      }
    },
    {
      "name": "Καμάριον",
      "id": "f45c73bd-d733-4fe0-871b-49f270c56a75.771",
      "location": {
        "lat": "38.45977402",
        "lng": "23.76431656"
      }
    }
  ],
  "Τ.Δ.Νεοχωρίου": [
    {
      "name": "Νεοχώριον",
      "id": "f45c73bd-d733-4fe0-871b-49f270c56a75.13097",
      "location": {
        "lat": "41.21854019",
        "lng": "24.63040733"
      }
    },
    {
      "name": "Μονή Αγίου Μηνά",
      "id": "f45c73bd-d733-4fe0-871b-49f270c56a75.1690",
      "location": {
        "lat": "38.29944992",
        "lng": "26.11698532"
      }
    },
    {
      "name": "Παραλία Αγίας Φωτεινής",
      "id": "f45c73bd-d733-4fe0-871b-49f270c56a75.1691",
      "location": {
        "lat": "38.28416443",
        "lng": "26.12011147"
      }
    },
    {
      "name": "'Αγιος Γεώργιος",
      "id": "f45c73bd-d733-4fe0-871b-49f270c56a75.3856",
      "location": {
        "lat": "39.49152756",
        "lng": "20.44010925"
      }
    },
    {
      "name": "Νεράιδα",
      "id": "f45c73bd-d733-4fe0-871b-49f270c56a75.3857",
      "location": {
        "lat": "39.52357101",
        "lng": "20.43620872"
      }
    },
    {
      "name": "Καλλιθέα",
      "id": "f45c73bd-d733-4fe0-871b-49f270c56a75.4030",
      "location": {
        "lat": "38.69672012",
        "lng": "20.70379066"
      }
    },
    {
      "name": "Δραγωτινά",
      "id": "f45c73bd-d733-4fe0-871b-49f270c56a75.4319",
      "location": {
        "lat": "39.38059998",
        "lng": "20.08207893"
      }
    },
    {
      "name": "Κρητικά",
      "id": "f45c73bd-d733-4fe0-871b-49f270c56a75.4320",
      "location": {
        "lat": "39.39054871",
        "lng": "20.05142784"
      }
    },
    {
      "name": "Παλαιοχώριον",
      "id": "f45c73bd-d733-4fe0-871b-49f270c56a75.4321",
      "location": {
        "lat": "39.38755798",
        "lng": "20.06648445"
      }
    },
    {
      "name": "Σπαρτερά",
      "id": "f45c73bd-d733-4fe0-871b-49f270c56a75.4322",
      "location": {
        "lat": "39.37678528",
        "lng": "20.09204102"
      }
    },
    {
      "name": "'Αγιος Χριστόφορος",
      "id": "f45c73bd-d733-4fe0-871b-49f270c56a75.4394",
      "location": {
        "lat": "38.69870758",
        "lng": "20.68773079"
      }
    },
    {
      "name": "Μαδουρή",
      "id": "f45c73bd-d733-4fe0-871b-49f270c56a75.4396",
      "location": {
        "lat": "38.70462036",
        "lng": "20.72384262"
      }
    },
    {
      "name": "Λεύκτρον",
      "id": "f45c73bd-d733-4fe0-871b-49f270c56a75.10164",
      "location": {
        "lat": "36.8471756",
        "lng": "22.26696968"
      }
    },
    {
      "name": "Στούπα",
      "id": "f45c73bd-d733-4fe0-871b-49f270c56a75.10165",
      "location": {
        "lat": "36.84014893",
        "lng": "22.2573967"
      }
    },
    {
      "name": "Καυκί",
      "id": "f45c73bd-d733-4fe0-871b-49f270c56a75.10318",
      "location": {
        "lat": "36.69310379",
        "lng": "22.48574638"
      }
    },
    {
      "name": "Αγερανός",
      "id": "f45c73bd-d733-4fe0-871b-49f270c56a75.10319",
      "location": {
        "lat": "36.69370651",
        "lng": "22.52489853"
      }
    },
    {
      "name": "'Αγιος Βασίλειος",
      "id": "f45c73bd-d733-4fe0-871b-49f270c56a75.10320",
      "location": {
        "lat": "36.69068909",
        "lng": "22.49872971"
      }
    },
    {
      "name": "Δίχοβα",
      "id": "f45c73bd-d733-4fe0-871b-49f270c56a75.10321",
      "location": {
        "lat": "36.68296814",
        "lng": "22.49902153"
      }
    },
    {
      "name": "Βαθύ",
      "id": "f45c73bd-d733-4fe0-871b-49f270c56a75.10322",
      "location": {
        "lat": "36.70089722",
        "lng": "22.51857567"
      }
    },
    {
      "name": "Καμάρες",
      "id": "f45c73bd-d733-4fe0-871b-49f270c56a75.10323",
      "location": {
        "lat": "36.68806458",
        "lng": "22.51761436"
      }
    },
    {
      "name": "'Αγιος Δημήτριος",
      "id": "f45c73bd-d733-4fe0-871b-49f270c56a75.12221",
      "location": {
        "lat": "39.30518341",
        "lng": "23.2702961"
      }
    },
    {
      "name": "Μεγάλη Βρύση",
      "id": "f45c73bd-d733-4fe0-871b-49f270c56a75.12222",
      "location": {
        "lat": "39.31455994",
        "lng": "23.24948883"
      }
    },
    {
      "name": "Πλάκα",
      "id": "f45c73bd-d733-4fe0-871b-49f270c56a75.12223",
      "location": {
        "lat": "39.33285522",
        "lng": "23.23641586"
      }
    },
    {
      "name": "'Αφυσσος",
      "id": "f45c73bd-d733-4fe0-871b-49f270c56a75.12224",
      "location": {
        "lat": "39.26947784",
        "lng": "23.16373634"
      }
    },
    {
      "name": "Ζερβόχια",
      "id": "f45c73bd-d733-4fe0-871b-49f270c56a75.12225",
      "location": {
        "lat": "39.29088593",
        "lng": "23.16463661"
      }
    },
    {
      "name": "Ιωνικόν",
      "id": "f45c73bd-d733-4fe0-871b-49f270c56a75.12739",
      "location": {
        "lat": "41.23699951",
        "lng": "24.62995148"
      }
    },
    {
      "name": "Παταγή",
      "id": "f45c73bd-d733-4fe0-871b-49f270c56a75.12862",
      "location": {
        "lat": "41.48087311",
        "lng": "26.42923737"
      }
    },
    {
      "name": "Κάτω Ιωνικόν",
      "id": "f45c73bd-d733-4fe0-871b-49f270c56a75.13096",
      "location": {
        "lat": "41.22976303",
        "lng": "24.62070656"
      }
    },
    {
      "name": "Σιδηρόπετρα",
      "id": "f45c73bd-d733-4fe0-871b-49f270c56a75.13098",
      "location": {
        "lat": "41.24183655",
        "lng": "24.59605598"
      }
    },
    {
      "name": "Σταυροχώριον",
      "id": "f45c73bd-d733-4fe0-871b-49f270c56a75.13099",
      "location": {
        "lat": "41.23859406",
        "lng": "24.59919167"
      }
    },
    {
      "name": "Καλύβα",
      "id": "f45c73bd-d733-4fe0-871b-49f270c56a75.13100",
      "location": {
        "lat": "41.28953552",
        "lng": "24.62105751"
      }
    }
  ],
  "Τ.Δ.Αγίου Ιωάννου": [
    {
      "name": "'Αγιος Ιωάννης",
      "id": "f45c73bd-d733-4fe0-871b-49f270c56a75.11608",
      "location": {
        "lat": "39.02376556",
        "lng": "22.80603218"
      }
    },
    {
      "name": "Ακτή Νηρέως",
      "id": "f45c73bd-d733-4fe0-871b-49f270c56a75.698",
      "location": {
        "lat": "38.40357208",
        "lng": "23.99394798"
      }
    },
    {
      "name": "Αγία Τριάς",
      "id": "f45c73bd-d733-4fe0-871b-49f270c56a75.4263",
      "location": {
        "lat": "39.60467148",
        "lng": "19.84087372"
      }
    },
    {
      "name": "Βασιλικά",
      "id": "f45c73bd-d733-4fe0-871b-49f270c56a75.4264",
      "location": {
        "lat": "39.62218475",
        "lng": "19.82294083"
      }
    },
    {
      "name": "Αράδαινα",
      "id": "f45c73bd-d733-4fe0-871b-49f270c56a75.5312",
      "location": {
        "lat": "35.22138214",
        "lng": "24.0609436"
      }
    },
    {
      "name": "Κουτσουνάρι",
      "id": "f45c73bd-d733-4fe0-871b-49f270c56a75.5758",
      "location": {
        "lat": "35.01463318",
        "lng": "25.82676506"
      }
    },
    {
      "name": "Φέρμα",
      "id": "f45c73bd-d733-4fe0-871b-49f270c56a75.5933",
      "location": {
        "lat": "35.01884079",
        "lng": "25.84887505"
      }
    },
    {
      "name": "Αγία Φωτιά",
      "id": "f45c73bd-d733-4fe0-871b-49f270c56a75.5934",
      "location": {
        "lat": "35.0188942",
        "lng": "25.87142754"
      }
    },
    {
      "name": "Τραγανό",
      "id": "f45c73bd-d733-4fe0-871b-49f270c56a75.9871",
      "location": {
        "lat": "37.67911911",
        "lng": "21.39735794"
      }
    },
    {
      "name": "Παλάτας",
      "id": "f45c73bd-d733-4fe0-871b-49f270c56a75.9872",
      "location": {
        "lat": "37.67065811",
        "lng": "21.38861465"
      }
    },
    {
      "name": "Κυανή Ακτή",
      "id": "f45c73bd-d733-4fe0-871b-49f270c56a75.9873",
      "location": {
        "lat": "37.65442657",
        "lng": "21.38108444"
      }
    },
    {
      "name": "Κουραμαδίτικα",
      "id": "f45c73bd-d733-4fe0-871b-49f270c56a75.13211",
      "location": {
        "lat": "39.62841034",
        "lng": "19.80554008"
      }
    }
  ],
  "Τ.Δ.Γαβαλά": [
    {
      "name": "Γαβαλάς",
      "id": "f45c73bd-d733-4fe0-871b-49f270c56a75.99",
      "location": {
        "lat": "38.44996643",
        "lng": "24.08389854"
      }
    }
  ],
  "Τ.Δ.Αφρατίου": [
    {
      "name": "Αφράτιον",
      "id": "f45c73bd-d733-4fe0-871b-49f270c56a75.4604",
      "location": {
        "lat": "35.10328674",
        "lng": "25.35255051"
      }
    },
    {
      "name": "Λεχριές",
      "id": "f45c73bd-d733-4fe0-871b-49f270c56a75.772",
      "location": {
        "lat": "38.48300171",
        "lng": "23.73271561"
      }
    },
    {
      "name": "Γυρίσματα",
      "id": "f45c73bd-d733-4fe0-871b-49f270c56a75.773",
      "location": {
        "lat": "38.46694183",
        "lng": "23.67591858"
      }
    }
  ],
  "Τ.Δ.Ακραιφνίου": [
    {
      "name": "Ακραίφνιον",
      "id": "f45c73bd-d733-4fe0-871b-49f270c56a75.102",
      "location": {
        "lat": "38.45362854",
        "lng": "23.21903801"
      }
    }
  ],
  "Τ.Δ.Χαλκιδέων": [
    {
      "name": "Χαλκίς",
      "id": "f45c73bd-d733-4fe0-871b-49f270c56a75.103",
      "location": {
        "lat": "38.46190262",
        "lng": "23.59617043"
      }
    },
    {
      "name": "Πασάς",
      "id": "f45c73bd-d733-4fe0-871b-49f270c56a75.13227",
      "location": {
        "lat": "38.44179153",
        "lng": "23.60174942"
      }
    }
  ],
  "Τ.Δ.Αγίου Σπυρίδωνος": [
    {
      "name": "'Αγιος Σπυρίδων",
      "id": "f45c73bd-d733-4fe0-871b-49f270c56a75.6193",
      "location": {
        "lat": "40.20442581",
        "lng": "22.4426403"
      }
    },
    {
      "name": "'Αγιος Ανδρέας",
      "id": "f45c73bd-d733-4fe0-871b-49f270c56a75.797",
      "location": {
        "lat": "38.4695015",
        "lng": "22.95160103"
      }
    },
    {
      "name": "Βαθύπεδον",
      "id": "f45c73bd-d733-4fe0-871b-49f270c56a75.3442",
      "location": {
        "lat": "39.13742065",
        "lng": "20.85905457"
      }
    },
    {
      "name": "Δοκίμια",
      "id": "f45c73bd-d733-4fe0-871b-49f270c56a75.3443",
      "location": {
        "lat": "39.15607452",
        "lng": "20.8868351"
      }
    }
  ],
  "Τ.Δ.Αχλαδερής": [
    {
      "name": "Συκέαι",
      "id": "f45c73bd-d733-4fe0-871b-49f270c56a75.105",
      "location": {
        "lat": "38.46406555",
        "lng": "24.15051079"
      }
    },
    {
      "name": "Αχλαδερή",
      "id": "f45c73bd-d733-4fe0-871b-49f270c56a75.674",
      "location": {
        "lat": "38.472229",
        "lng": "24.16883469"
      }
    },
    {
      "name": "Κορασίδα",
      "id": "f45c73bd-d733-4fe0-871b-49f270c56a75.675",
      "location": {
        "lat": "38.47117233",
        "lng": "24.18622017"
      }
    },
    {
      "name": "Κάλαμος",
      "id": "f45c73bd-d733-4fe0-871b-49f270c56a75.676",
      "location": {
        "lat": "38.4470787",
        "lng": "24.18055153"
      }
    },
    {
      "name": "Περιβόλια",
      "id": "f45c73bd-d733-4fe0-871b-49f270c56a75.677",
      "location": {
        "lat": "38.44787979",
        "lng": "24.13177299"
      }
    }
  ],
  "Τ.Δ.Παρθενίου": [
    {
      "name": "Παρθένιον",
      "id": "f45c73bd-d733-4fe0-871b-49f270c56a75.8529",
      "location": {
        "lat": "37.47175598",
        "lng": "22.51274872"
      }
    },
    {
      "name": "Παναγία",
      "id": "f45c73bd-d733-4fe0-871b-49f270c56a75.696",
      "location": {
        "lat": "38.49424362",
        "lng": "23.96453476"
      }
    }
  ],
  "Τ.Δ.Καρυάς": [
    {
      "name": "Καρυά",
      "id": "f45c73bd-d733-4fe0-871b-49f270c56a75.12124",
      "location": {
        "lat": "39.98245239",
        "lng": "22.38917923"
      }
    },
    {
      "name": "Καριώτικα",
      "id": "f45c73bd-d733-4fe0-871b-49f270c56a75.9050",
      "location": {
        "lat": "38.06150436",
        "lng": "22.64576149"
      }
    },
    {
      "name": "Αρία",
      "id": "f45c73bd-d733-4fe0-871b-49f270c56a75.9644",
      "location": {
        "lat": "37.61756134",
        "lng": "22.55045509"
      }
    },
    {
      "name": "Γαλαναίικα",
      "id": "f45c73bd-d733-4fe0-871b-49f270c56a75.9645",
      "location": {
        "lat": "37.63484192",
        "lng": "22.57847214"
      }
    },
    {
      "name": "Στραβή Ράχη",
      "id": "f45c73bd-d733-4fe0-871b-49f270c56a75.9646",
      "location": {
        "lat": "37.620327",
        "lng": "22.58486557"
      }
    },
    {
      "name": "Γαλάτιον",
      "id": "f45c73bd-d733-4fe0-871b-49f270c56a75.9647",
      "location": {
        "lat": "37.63534164",
        "lng": "22.59609413"
      }
    },
    {
      "name": "Αγριλίτσα",
      "id": "f45c73bd-d733-4fe0-871b-49f270c56a75.9648",
      "location": {
        "lat": "37.62051773",
        "lng": "22.59615707"
      }
    },
    {
      "name": "Σπαναίικα",
      "id": "f45c73bd-d733-4fe0-871b-49f270c56a75.9649",
      "location": {
        "lat": "37.61525726",
        "lng": "22.60611343"
      }
    },
    {
      "name": "Χούνη",
      "id": "f45c73bd-d733-4fe0-871b-49f270c56a75.9650",
      "location": {
        "lat": "37.62998581",
        "lng": "22.65210915"
      }
    },
    {
      "name": "Μποζιονελαίικα",
      "id": "f45c73bd-d733-4fe0-871b-49f270c56a75.9651",
      "location": {
        "lat": "37.62268066",
        "lng": "22.62425041"
      }
    },
    {
      "name": "'Αγιος Γεώργιος",
      "id": "f45c73bd-d733-4fe0-871b-49f270c56a75.9652",
      "location": {
        "lat": "37.64296341",
        "lng": "22.57328033"
      }
    },
    {
      "name": "Σιτοχώριον",
      "id": "f45c73bd-d733-4fe0-871b-49f270c56a75.9843",
      "location": {
        "lat": "37.79008484",
        "lng": "21.62500763"
      }
    },
    {
      "name": "Βαρβαρίνα",
      "id": "f45c73bd-d733-4fe0-871b-49f270c56a75.9844",
      "location": {
        "lat": "37.79495621",
        "lng": "21.60176468"
      }
    },
    {
      "name": "Παλαιοχωράκιον",
      "id": "f45c73bd-d733-4fe0-871b-49f270c56a75.12541",
      "location": {
        "lat": "39.32058334",
        "lng": "21.50399399"
      }
    },
    {
      "name": "Πτελέα",
      "id": "f45c73bd-d733-4fe0-871b-49f270c56a75.12542",
      "location": {
        "lat": "39.30499649",
        "lng": "21.47064972"
      }
    },
    {
      "name": "Ρόγκια",
      "id": "f45c73bd-d733-4fe0-871b-49f270c56a75.12543",
      "location": {
        "lat": "39.30268478",
        "lng": "21.49143982"
      }
    }
  ],
  "Τ.Δ.Κοκκίνου": [
    {
      "name": "Κόκκινον",
      "id": "f45c73bd-d733-4fe0-871b-49f270c56a75.10824",
      "location": {
        "lat": "38.54808044",
        "lng": "22.12135315"
      }
    },
    {
      "name": "'Αγιος Ιωάννης",
      "id": "f45c73bd-d733-4fe0-871b-49f270c56a75.806",
      "location": {
        "lat": "38.4934082",
        "lng": "23.26493073"
      }
    },
    {
      "name": "Σκροπονέρια",
      "id": "f45c73bd-d733-4fe0-871b-49f270c56a75.807",
      "location": {
        "lat": "38.50127411",
        "lng": "23.32390785"
      }
    },
    {
      "name": "Παναίικα",
      "id": "f45c73bd-d733-4fe0-871b-49f270c56a75.10198",
      "location": {
        "lat": "36.89532089",
        "lng": "21.84899712"
      }
    },
    {
      "name": "Μονή Πελαγίας",
      "id": "f45c73bd-d733-4fe0-871b-49f270c56a75.13208",
      "location": {
        "lat": "38.45663834",
        "lng": "23.26491928"
      }
    }
  ],
  "Τ.Δ.Λουκισίων (τ.Ανθηδώνας)": [
    {
      "name": "Λουκίσια",
      "id": "f45c73bd-d733-4fe0-871b-49f270c56a75.109",
      "location": {
        "lat": "38.47602844",
        "lng": "23.44616699"
      }
    },
    {
      "name": "Ανθηδώνα",
      "id": "f45c73bd-d733-4fe0-871b-49f270c56a75.808",
      "location": {
        "lat": "38.49272919",
        "lng": "23.46419144"
      }
    },
    {
      "name": "Υλίκη",
      "id": "f45c73bd-d733-4fe0-871b-49f270c56a75.810",
      "location": {
        "lat": "38.4201355",
        "lng": "23.29538918"
      }
    }
  ],
  "Τ.Δ.Δροσιάς": [
    {
      "name": "Δροσιά",
      "id": "f45c73bd-d733-4fe0-871b-49f270c56a75.8961",
      "location": {
        "lat": "37.91540146",
        "lng": "21.74283981"
      }
    },
    {
      "name": "Ξηρόβρυση",
      "id": "f45c73bd-d733-4fe0-871b-49f270c56a75.774",
      "location": {
        "lat": "38.46421051",
        "lng": "23.57167244"
      }
    },
    {
      "name": "Προφήτης Ηλίας",
      "id": "f45c73bd-d733-4fe0-871b-49f270c56a75.775",
      "location": {
        "lat": "38.44540405",
        "lng": "23.52700233"
      }
    },
    {
      "name": "Κτυπονήσιον",
      "id": "f45c73bd-d733-4fe0-871b-49f270c56a75.776",
      "location": {
        "lat": "38.48551178",
        "lng": "23.5028286"
      }
    },
    {
      "name": "Κρόνια",
      "id": "f45c73bd-d733-4fe0-871b-49f270c56a75.809",
      "location": {
        "lat": "38.48684692",
        "lng": "23.4708271"
      }
    },
    {
      "name": "Πτέρη",
      "id": "f45c73bd-d733-4fe0-871b-49f270c56a75.9518",
      "location": {
        "lat": "37.90648651",
        "lng": "21.7167511"
      }
    },
    {
      "name": "Κάτω Δροσιά",
      "id": "f45c73bd-d733-4fe0-871b-49f270c56a75.9519",
      "location": {
        "lat": "37.92394638",
        "lng": "21.70841026"
      }
    },
    {
      "name": "Κουμπέριον",
      "id": "f45c73bd-d733-4fe0-871b-49f270c56a75.9520",
      "location": {
        "lat": "37.92913055",
        "lng": "21.75470161"
      }
    },
    {
      "name": "'Ανω Δροσιά",
      "id": "f45c73bd-d733-4fe0-871b-49f270c56a75.10068",
      "location": {
        "lat": "37.03751755",
        "lng": "21.85678673"
      }
    }
  ],
  "Τ.Δ.Θεολόγου": [
    {
      "name": "Θεολόγος",
      "id": "f45c73bd-d733-4fe0-871b-49f270c56a75.6591",
      "location": {
        "lat": "40.65779877",
        "lng": "24.69063759"
      }
    },
    {
      "name": "Επάνω Καλαμών",
      "id": "f45c73bd-d733-4fe0-871b-49f270c56a75.1352",
      "location": {
        "lat": "36.34403229",
        "lng": "28.05489349"
      }
    },
    {
      "name": "Αλυκή",
      "id": "f45c73bd-d733-4fe0-871b-49f270c56a75.7412",
      "location": {
        "lat": "40.60372925",
        "lng": "24.73975372"
      }
    },
    {
      "name": "Αστρίς",
      "id": "f45c73bd-d733-4fe0-871b-49f270c56a75.7413",
      "location": {
        "lat": "40.58718109",
        "lng": "24.65213203"
      }
    },
    {
      "name": "Θυμωνιά",
      "id": "f45c73bd-d733-4fe0-871b-49f270c56a75.7414",
      "location": {
        "lat": "40.61253357",
        "lng": "24.72198296"
      }
    },
    {
      "name": "Κοίνυρα",
      "id": "f45c73bd-d733-4fe0-871b-49f270c56a75.7416",
      "location": {
        "lat": "40.66257477",
        "lng": "24.76198769"
      }
    },
    {
      "name": "Μονή Αρχαγγέλου",
      "id": "f45c73bd-d733-4fe0-871b-49f270c56a75.7417",
      "location": {
        "lat": "40.5946312",
        "lng": "24.69925308"
      }
    },
    {
      "name": "Παλαιοχώριον",
      "id": "f45c73bd-d733-4fe0-871b-49f270c56a75.7418",
      "location": {
        "lat": "40.68235779",
        "lng": "24.76074219"
      }
    },
    {
      "name": "Ποτός",
      "id": "f45c73bd-d733-4fe0-871b-49f270c56a75.7419",
      "location": {
        "lat": "40.60845566",
        "lng": "24.60420799"
      }
    },
    {
      "name": "'Αγιος Ιωάννης Θεολόγος",
      "id": "f45c73bd-d733-4fe0-871b-49f270c56a75.8284",
      "location": {
        "lat": "37.13769913",
        "lng": "22.44924545"
      }
    },
    {
      "name": "Καλύβια Θεολόγου",
      "id": "f45c73bd-d733-4fe0-871b-49f270c56a75.10466",
      "location": {
        "lat": "37.16094208",
        "lng": "22.45386505"
      }
    }
  ],
  "Τ.Δ.Αραχόβης": [
    {
      "name": "Αράχοβα",
      "id": "f45c73bd-d733-4fe0-871b-49f270c56a75.10925",
      "location": {
        "lat": "38.6832962",
        "lng": "21.86421967"
      }
    },
    {
      "name": "Καλύβια Λιβαδίου Αραχόβης",
      "id": "f45c73bd-d733-4fe0-871b-49f270c56a75.560",
      "location": {
        "lat": "38.51158142",
        "lng": "22.54667854"
      }
    },
    {
      "name": "Ζεμενό Αραχόβης",
      "id": "f45c73bd-d733-4fe0-871b-49f270c56a75.781",
      "location": {
        "lat": "38.47597885",
        "lng": "22.60227013"
      }
    },
    {
      "name": "Κρανές",
      "id": "f45c73bd-d733-4fe0-871b-49f270c56a75.11158",
      "location": {
        "lat": "38.6688118",
        "lng": "21.8565464"
      }
    }
  ],
  "Τ.Δ.Θουρίου": [
    {
      "name": "Θούριον",
      "id": "f45c73bd-d733-4fe0-871b-49f270c56a75.113",
      "location": {
        "lat": "38.48419952",
        "lng": "22.88869095"
      }
    }
  ],
  "Τ.Δ.Ρωμαιίκου": [
    {
      "name": "Ρωμαίικον",
      "id": "f45c73bd-d733-4fe0-871b-49f270c56a75.114",
      "location": {
        "lat": "38.4850769",
        "lng": "22.93854904"
      }
    }
  ],
  "Τ.Δ.Κάστρου": [
    {
      "name": "Κάστρον",
      "id": "f45c73bd-d733-4fe0-871b-49f270c56a75.8944",
      "location": {
        "lat": "37.88831329",
        "lng": "21.13716507"
      }
    },
    {
      "name": "Στροβίκιον",
      "id": "f45c73bd-d733-4fe0-871b-49f270c56a75.802",
      "location": {
        "lat": "38.47584152",
        "lng": "23.10407066"
      }
    },
    {
      "name": "Καραβάκι",
      "id": "f45c73bd-d733-4fe0-871b-49f270c56a75.9772",
      "location": {
        "lat": "37.89651108",
        "lng": "21.13531876"
      }
    },
    {
      "name": "Ψηλή Ράχη",
      "id": "f45c73bd-d733-4fe0-871b-49f270c56a75.9773",
      "location": {
        "lat": "37.90355301",
        "lng": "21.12158585"
      }
    },
    {
      "name": "Ανάληψη",
      "id": "f45c73bd-d733-4fe0-871b-49f270c56a75.9774",
      "location": {
        "lat": "37.91096497",
        "lng": "21.13228416"
      }
    },
    {
      "name": "Καλαμιά",
      "id": "f45c73bd-d733-4fe0-871b-49f270c56a75.9775",
      "location": {
        "lat": "37.87154388",
        "lng": "21.1090889"
      }
    },
    {
      "name": "Λουτρά Κυλλήνης",
      "id": "f45c73bd-d733-4fe0-871b-49f270c56a75.9776",
      "location": {
        "lat": "37.85614777",
        "lng": "21.11136246"
      }
    }
  ],
  "Τ.Δ.Ορχομενού": [
    {
      "name": "Ορχομενός",
      "id": "f45c73bd-d733-4fe0-871b-49f270c56a75.8742",
      "location": {
        "lat": "37.71501923",
        "lng": "22.31417084"
      }
    },
    {
      "name": "Ρούσσης",
      "id": "f45c73bd-d733-4fe0-871b-49f270c56a75.9988",
      "location": {
        "lat": "37.72742844",
        "lng": "22.3005619"
      }
    }
  ],
  "Τ.Δ.Χαιρωνείας": [
    {
      "name": "Χαιρώνεια",
      "id": "f45c73bd-d733-4fe0-871b-49f270c56a75.118",
      "location": {
        "lat": "38.49235153",
        "lng": "22.84262848"
      }
    }
  ],
  "Τ.Δ.Αυλωναρίου": [
    {
      "name": "Αυλωνάριον",
      "id": "f45c73bd-d733-4fe0-871b-49f270c56a75.119",
      "location": {
        "lat": "38.50014877",
        "lng": "24.12199402"
      }
    },
    {
      "name": "Ελαία",
      "id": "f45c73bd-d733-4fe0-871b-49f270c56a75.664",
      "location": {
        "lat": "38.51496124",
        "lng": "24.14007759"
      }
    },
    {
      "name": "Μονή Αγίου Χαραλάμπους Λευκών",
      "id": "f45c73bd-d733-4fe0-871b-49f270c56a75.665",
      "location": {
        "lat": "38.50292206",
        "lng": "24.16437912"
      }
    },
    {
      "name": "Χάνια",
      "id": "f45c73bd-d733-4fe0-871b-49f270c56a75.671",
      "location": {
        "lat": "38.48919678",
        "lng": "24.1141758"
      }
    },
    {
      "name": "Λοφίσκος",
      "id": "f45c73bd-d733-4fe0-871b-49f270c56a75.672",
      "location": {
        "lat": "38.48155594",
        "lng": "24.11135864"
      }
    },
    {
      "name": "Δάφνη",
      "id": "f45c73bd-d733-4fe0-871b-49f270c56a75.673",
      "location": {
        "lat": "38.46472549",
        "lng": "24.11376381"
      }
    }
  ],
  "Τ.Δ.Αγίου Βλασίου": [
    {
      "name": "'Αγιος Βλάσιος",
      "id": "f45c73bd-d733-4fe0-871b-49f270c56a75.11732",
      "location": {
        "lat": "39.33978271",
        "lng": "23.06528282"
      }
    },
    {
      "name": "Λόκας",
      "id": "f45c73bd-d733-4fe0-871b-49f270c56a75.641",
      "location": {
        "lat": "38.56109619",
        "lng": "24.04629707"
      }
    },
    {
      "name": "'Ανω 'Αγιος Βλάσιος",
      "id": "f45c73bd-d733-4fe0-871b-49f270c56a75.10997",
      "location": {
        "lat": "38.8080101",
        "lng": "21.51155472"
      }
    },
    {
      "name": "Σοβολακίτικα",
      "id": "f45c73bd-d733-4fe0-871b-49f270c56a75.11457",
      "location": {
        "lat": "38.81329727",
        "lng": "21.52480698"
      }
    },
    {
      "name": "Κάτω 'Αγιος Βλάσιος",
      "id": "f45c73bd-d733-4fe0-871b-49f270c56a75.11458",
      "location": {
        "lat": "38.81462097",
        "lng": "21.49962425"
      }
    },
    {
      "name": "Κάτω Κάμπος",
      "id": "f45c73bd-d733-4fe0-871b-49f270c56a75.11459",
      "location": {
        "lat": "38.82991791",
        "lng": "21.47943115"
      }
    },
    {
      "name": "Καραμαναίικα",
      "id": "f45c73bd-d733-4fe0-871b-49f270c56a75.11460",
      "location": {
        "lat": "38.82771683",
        "lng": "21.5201931"
      }
    },
    {
      "name": "Αγία Παρασκευή",
      "id": "f45c73bd-d733-4fe0-871b-49f270c56a75.11461",
      "location": {
        "lat": "38.85796738",
        "lng": "21.49334908"
      }
    },
    {
      "name": "Λάπατο",
      "id": "f45c73bd-d733-4fe0-871b-49f270c56a75.11462",
      "location": {
        "lat": "38.79899979",
        "lng": "21.5083046"
      }
    },
    {
      "name": "Σκαλιτίνα",
      "id": "f45c73bd-d733-4fe0-871b-49f270c56a75.11463",
      "location": {
        "lat": "38.79457092",
        "lng": "21.49849701"
      }
    },
    {
      "name": "Μπόκρη",
      "id": "f45c73bd-d733-4fe0-871b-49f270c56a75.11464",
      "location": {
        "lat": "38.79666901",
        "lng": "21.49284935"
      }
    },
    {
      "name": "Μαλάκιον",
      "id": "f45c73bd-d733-4fe0-871b-49f270c56a75.12231",
      "location": {
        "lat": "39.31281662",
        "lng": "23.06752205"
      }
    },
    {
      "name": "Παλαιόκαστρον",
      "id": "f45c73bd-d733-4fe0-871b-49f270c56a75.12232",
      "location": {
        "lat": "39.33850479",
        "lng": "23.05914497"
      }
    },
    {
      "name": "Στρόφιλος",
      "id": "f45c73bd-d733-4fe0-871b-49f270c56a75.12233",
      "location": {
        "lat": "39.336689",
        "lng": "23.07137871"
      }
    }
  ],
  "Τ.Δ.Προσηλίου": [
    {
      "name": "Προσήλιον",
      "id": "f45c73bd-d733-4fe0-871b-49f270c56a75.11115",
      "location": {
        "lat": "38.58609009",
        "lng": "22.33521652"
      }
    },
    {
      "name": "Καλύβαι",
      "id": "f45c73bd-d733-4fe0-871b-49f270c56a75.10184",
      "location": {
        "lat": "36.90112305",
        "lng": "22.24366951"
      }
    },
    {
      "name": "Βίνιανη",
      "id": "f45c73bd-d733-4fe0-871b-49f270c56a75.10851",
      "location": {
        "lat": "38.59290314",
        "lng": "22.35665894"
      }
    },
    {
      "name": "Μοναστήριον",
      "id": "f45c73bd-d733-4fe0-871b-49f270c56a75.11116",
      "location": {
        "lat": "38.59078598",
        "lng": "22.32836533"
      }
    }
  ],
  "Τ.Δ.Τραχηλίου": [
    {
      "name": "Τραχήλιον",
      "id": "f45c73bd-d733-4fe0-871b-49f270c56a75.122",
      "location": {
        "lat": "38.50828171",
        "lng": "24.00503349"
      }
    }
  ],
  "Τ.Δ.Θαρουνίων": [
    {
      "name": "Θαρούνια",
      "id": "f45c73bd-d733-4fe0-871b-49f270c56a75.123",
      "location": {
        "lat": "38.50909805",
        "lng": "23.97706604"
      }
    }
  ],
  "Τ.Δ.Ακοντίου": [
    {
      "name": "Ακόντιον",
      "id": "f45c73bd-d733-4fe0-871b-49f270c56a75.124",
      "location": {
        "lat": "38.50453949",
        "lng": "22.8812809"
      }
    }
  ],
  "Τ.Δ.Πούρνου": [
    {
      "name": "Πούρνος",
      "id": "f45c73bd-d733-4fe0-871b-49f270c56a75.125",
      "location": {
        "lat": "38.51078415",
        "lng": "23.77905273"
      }
    }
  ],
  "Τ.Δ.Νέας Αρτάκης": [
    {
      "name": "Νέα Αρτάκη",
      "id": "f45c73bd-d733-4fe0-871b-49f270c56a75.126",
      "location": {
        "lat": "38.5116806",
        "lng": "23.63526154"
      }
    }
  ],
  "Τ.Δ.Κρεμαστού": [
    {
      "name": "Κρεμαστός",
      "id": "f45c73bd-d733-4fe0-871b-49f270c56a75.127",
      "location": {
        "lat": "38.51287842",
        "lng": "24.0293026"
      }
    }
  ],
  "Τ.Δ.Διονύσου": [
    {
      "name": "Διόνυσος",
      "id": "f45c73bd-d733-4fe0-871b-49f270c56a75.2442",
      "location": {
        "lat": "38.09776688",
        "lng": "23.88222122"
      }
    },
    {
      "name": "Ραπεντώσα",
      "id": "f45c73bd-d733-4fe0-871b-49f270c56a75.2518",
      "location": {
        "lat": "38.09082794",
        "lng": "23.90110779"
      }
    }
  ],
  "Τ.Δ.Πύργου": [
    {
      "name": "Πύργος",
      "id": "f45c73bd-d733-4fe0-871b-49f270c56a75.10742",
      "location": {
        "lat": "38.41595459",
        "lng": "22.01726341"
      }
    },